 {"type": "FeatureCollection", "features": [{"id": 427, "type": "Feature", "geometry": {"type": "Point", "coordinates": [-86.36396, 43.60862]}, "properties": {"subdiv": "MI", "city_name": "Shelby", "player_name": "Kyle Connor", "country_iso2": "US", "current_team": "Winnipeg Jets", "hockey_reference_link": "https://www.hockey-reference.com/players/c/connoky01.html"}}, {"id": 144, "type": "Feature", "geometry": {"type": "Point", "coordinates": [-70.92032, 42.21399]}, "properties": {"subdiv": "MA", "city_name": "East Weymouth", "player_name": "Charlie Coyle", "country_iso2": "US", "current_team": "Minnesota Wild", "hockey_reference_link": "https://www.hockey-reference.com/players/c/coylech01.html"}}, {"id": 643, "type": "Feature", "geometry": {"type": "Point", "coordinates": [-80.73816, 32.19382]}, "properties": {"subdiv": "SC", "city_name": "Hilton Head Island", "player_name": "Ryan Hartman", "country_iso2": "US", "current_team": "Chicago Blackhawks", "hockey_reference_link": "https://www.hockey-reference.com/players/h/hartmry01.html"}}, {"id": 2, "type": "Feature", "geometry": {"type": "Point", "coordinates": [37.61556, 55.75222]}, "properties": {"subdiv": null, "city_name": "Moscow", "player_name": "A. Ovechkin", "country_iso2": "RU", "current_team": "Washington Capitals", "hockey_reference_link": "https://www.hockey-reference.com/players/o/ovechal01.html"}}, {"id": 26, "type": "Feature", "geometry": {"type": "Point", "coordinates": [37.61556, 55.75222]}, "properties": {"subdiv": null, "city_name": "Moscow", "player_name": "Alex Ovechkin", "country_iso2": "RU", "current_team": "Washington Capitals", "hockey_reference_link": "https://www.hockey-reference.com/players/o/ovechal01.html"}}, {"id": 31, "type": "Feature", "geometry": {"type": "Point", "coordinates": [49.12214, 55.78874]}, "properties": {"subdiv": null, "city_name": "Kazan’", "player_name": "Alexander Burmistrov", "country_iso2": "RU", "current_team": "Vancouver Canucks", "hockey_reference_link": "https://www.hockey-reference.com/players/b/burmial01.html"}}, {"id": 34, "type": "Feature", "geometry": {"type": "Point", "coordinates": [59.965, 57.91944]}, "properties": {"subdiv": null, "city_name": "Nizhny Tagil", "player_name": "Alexander Radulov", "country_iso2": "RU", "current_team": "Dallas Stars", "hockey_reference_link": "https://www.hockey-reference.com/players/r/radulal01.html"}}, {"id": 37, "type": "Feature", "geometry": {"type": "Point", "coordinates": [49.3461, 53.5303]}, "properties": {"subdiv": null, "city_name": "Tolyatti", "player_name": "Alexei Emelin", "country_iso2": "RU", "current_team": "Nashville Predators", "hockey_reference_link": "https://www.hockey-reference.com/players/e/emelial01.html"}}, {"id": 52, "type": "Feature", "geometry": {"type": "Point", "coordinates": [-83.17826, 42.13949]}, "properties": {"subdiv": "MI", "city_name": "Trenton", "player_name": "Andy Greene", "country_iso2": "US", "current_team": "New Jersey Devils", "hockey_reference_link": "https://www.hockey-reference.com/players/g/greenan01.html"}}, {"id": 55, "type": "Feature", "geometry": {"type": "Point", "coordinates": [-75.14434, 39.7665]}, "properties": {"subdiv": "NJ", "city_name": "Sewell", "player_name": "Anthony DeAngelo", "country_iso2": "US", "current_team": "New York Rangers", "hockey_reference_link": "https://www.hockey-reference.com/players/d/deangan01.html"}}, {"id": 59, "type": "Feature", "geometry": {"type": "Point", "coordinates": [3.17456, 50.69421]}, "properties": {"subdiv": null, "city_name": "Roubaix", "player_name": "Antoine Roussel", "country_iso2": "FR", "current_team": "Dallas Stars", "hockey_reference_link": "https://www.hockey-reference.com/players/r/roussan01.html"}}, {"id": 62, "type": "Feature", "geometry": {"type": "Point", "coordinates": [45.00464, 53.20066]}, "properties": {"subdiv": null, "city_name": "Penza", "player_name": "Anton Slepyshev", "country_iso2": "RU", "current_team": "Edmonton Oilers", "hockey_reference_link": "https://www.hockey-reference.com/players/s/slepyan01.html"}}, {"id": 56, "type": "Feature", "geometry": {"type": "Point", "coordinates": [-73.81669, 45.44868]}, "properties": {"subdiv": "QC", "city_name": "Pointe-Claire", "player_name": "Anthony Duclair", "country_iso2": "CA", "current_team": "Arizona Coyotes", "hockey_reference_link": "https://www.hockey-reference.com/players/d/duclaan01.html"}}, {"id": 64, "type": "Feature", "geometry": {"type": "Point", "coordinates": [14.06694, 46.43056]}, "properties": {"subdiv": null, "city_name": "Jesenice", "player_name": "Anze Kopitar", "country_iso2": "SI", "current_team": "Los Angeles Kings", "hockey_reference_link": "https://www.hockey-reference.com/players/k/kopitan01.html"}}, {"id": 660, "type": "Feature", "geometry": {"type": "Point", "coordinates": [-72.26781, 48.52118]}, "properties": {"subdiv": "QC", "city_name": "Roberval Airport", "player_name": "Samuel Girard", "country_iso2": "CA", "current_team": "Colorado Avalanche", "hockey_reference_link": "https://www.hockey-reference.com/players/g/girarsa01.html"}}, {"id": 679, "type": "Feature", "geometry": {"type": "Point", "coordinates": [-74.67528, 49.51444]}, "properties": {"subdiv": "ON", "city_name": "Lac Winchester", "player_name": "Slater Koekkoek", "country_iso2": "CA", "current_team": "Tampa Bay Lightning", "hockey_reference_link": "https://www.hockey-reference.com/players/k/koekksl01.html"}}, {"id": 80, "type": "Feature", "geometry": {"type": "Point", "coordinates": [-93.45551, 45.01052]}, "properties": {"subdiv": "MN", "city_name": "Plymouth", "player_name": "Blake Wheeler", "country_iso2": "US", "current_team": "Winnipeg Jets", "hockey_reference_link": "https://www.hockey-reference.com/players/w/wheelbl01.html"}}, {"id": 81, "type": "Feature", "geometry": {"type": "Point", "coordinates": [-81.23304, 42.98339]}, "properties": {"subdiv": "ON", "city_name": "London", "player_name": "Bo Horvat", "country_iso2": "CA", "current_team": "Vancouver Canucks", "hockey_reference_link": "https://www.hockey-reference.com/players/h/horvabo01.html"}}, {"id": 82, "type": "Feature", "geometry": {"type": "Point", "coordinates": [-75.03073, 39.93484]}, "properties": {"subdiv": "NJ", "city_name": "Cherry Hill", "player_name": "Bobby Ryan", "country_iso2": "US", "current_team": "Ottawa Senators", "hockey_reference_link": "https://www.hockey-reference.com/players/r/ryanbo01.html"}}, {"id": 83, "type": "Feature", "geometry": {"type": "Point", "coordinates": [-76.14742, 43.04812]}, "properties": {"subdiv": "NY", "city_name": "Syracuse", "player_name": "Boo Nieves", "country_iso2": "US", "current_team": "New York Rangers", "hockey_reference_link": "https://www.hockey-reference.com/players/n/nievecr01.html"}}, {"id": 84, "type": "Feature", "geometry": {"type": "Point", "coordinates": [-81.06643, 42.98339]}, "properties": {"subdiv": "ON", "city_name": "Dorchester", "player_name": "Boone Jenner", "country_iso2": "CA", "current_team": "Columbus Blue Jackets", "hockey_reference_link": "https://www.hockey-reference.com/players/j/jennebo01.html"}}, {"id": 85, "type": "Feature", "geometry": {"type": "Point", "coordinates": [-122.60193, 49.21939]}, "properties": {"subdiv": "BC", "city_name": "Maple Ridge", "player_name": "Brad Hunt", "country_iso2": "CA", "current_team": "Vegas Golden Knights", "hockey_reference_link": "https://www.hockey-reference.com/players/h/huntbr01.html"}}, {"id": 88, "type": "Feature", "geometry": {"type": "Point", "coordinates": [-77.38277, 44.16682]}, "properties": {"subdiv": "ON", "city_name": "Belleville", "player_name": "Brad Richardson", "country_iso2": "CA", "current_team": "Arizona Coyotes", "hockey_reference_link": "https://www.hockey-reference.com/players/r/richabr02.html"}}, {"id": 90, "type": "Feature", "geometry": {"type": "Point", "coordinates": [-104.82136, 38.83388]}, "properties": {"subdiv": "CO", "city_name": "Colorado Springs", "player_name": "Brandon Carlo", "country_iso2": "US", "current_team": "Boston Bruins", "hockey_reference_link": "https://www.hockey-reference.com/players/c/carlobr01.html"}}, {"id": 91, "type": "Feature", "geometry": {"type": "Point", "coordinates": [-112.14603, 49.78703]}, "properties": {"subdiv": "AB", "city_name": "Taber", "player_name": "Brandon Davidson", "country_iso2": "CA", "current_team": "Montreal Canadiens", "hockey_reference_link": "https://www.hockey-reference.com/players/d/davidbr01.html"}}, {"id": 92, "type": "Feature", "geometry": {"type": "Point", "coordinates": [-149.90028, 61.21806]}, "properties": {"subdiv": "AK", "city_name": "Anchorage", "player_name": "Brandon Dubinsky", "country_iso2": "US", "current_team": "Columbus Blue Jackets", "hockey_reference_link": "https://www.hockey-reference.com/players/d/dubinbr01.html"}}, {"id": 93, "type": "Feature", "geometry": {"type": "Point", "coordinates": [-122.75301, 53.9166]}, "properties": {"subdiv": "BC", "city_name": "Prince George", "player_name": "Brandon Manning", "country_iso2": "CA", "current_team": "Philadelphia Flyers", "hockey_reference_link": "https://www.hockey-reference.com/players/m/mannibr01.html"}}, {"id": 94, "type": "Feature", "geometry": {"type": "Point", "coordinates": [-80.26636, 43.1334]}, "properties": {"subdiv": "ON", "city_name": "Brantford", "player_name": "Brandon Montour", "country_iso2": "CA", "current_team": "Anaheim Ducks", "hockey_reference_link": "https://www.hockey-reference.com/players/m/montobr01.html"}}, {"id": 95, "type": "Feature", "geometry": {"type": "Point", "coordinates": [-79.99589, 40.44062]}, "properties": {"subdiv": "PA", "city_name": "Pittsburgh", "player_name": "Brandon Saad", "country_iso2": "US", "current_team": "Chicago Blackhawks", "hockey_reference_link": "https://www.hockey-reference.com/players/s/saadbr01.html"}}, {"id": 96, "type": "Feature", "geometry": {"type": "Point", "coordinates": [-73.42568, 40.86815]}, "properties": {"subdiv": "NY", "city_name": "Huntington", "player_name": "Brandon Sutter", "country_iso2": "US", "current_team": "Vancouver Canucks", "hockey_reference_link": "https://www.hockey-reference.com/players/s/suttebr03.html"}}, {"id": 97, "type": "Feature", "geometry": {"type": "Point", "coordinates": [-79.4163, 43.70011]}, "properties": {"subdiv": "ON", "city_name": "Toronto", "player_name": "Brandon Tanev", "country_iso2": "CA", "current_team": "Winnipeg Jets", "hockey_reference_link": "https://www.hockey-reference.com/players/t/tanevbr01.html"}}, {"id": 99, "type": "Feature", "geometry": {"type": "Point", "coordinates": [-114.08529, 51.05011]}, "properties": {"subdiv": "AB", "city_name": "Calgary", "player_name": "Brayden Point", "country_iso2": "CA", "current_team": "Tampa Bay Lightning", "hockey_reference_link": "https://www.hockey-reference.com/players/p/pointbr01.html"}}, {"id": 100, "type": "Feature", "geometry": {"type": "Point", "coordinates": [-106.66892, 52.13238]}, "properties": {"subdiv": "SK", "city_name": "Saskatoon", "player_name": "Brayden Schenn", "country_iso2": "CA", "current_team": "St. Louis Blues", "hockey_reference_link": "https://www.hockey-reference.com/players/s/schenbr01.html"}}, {"id": 101, "type": "Feature", "geometry": {"type": "Point", "coordinates": [-108.4181, 49.65005]}, "properties": {"subdiv": "SK", "city_name": "Shaunavon", "player_name": "Braydon Coburn", "country_iso2": "CA", "current_team": "Tampa Bay Lightning", "hockey_reference_link": "https://www.hockey-reference.com/players/c/coburbr01.html"}}, {"id": 102, "type": "Feature", "geometry": {"type": "Point", "coordinates": [-113.46871, 53.55014]}, "properties": {"subdiv": "AB", "city_name": "Edmonton", "player_name": "Brendan Gallagher", "country_iso2": "CA", "current_team": "Montreal Canadiens", "hockey_reference_link": "https://www.hockey-reference.com/players/g/gallabr01.html"}}, {"id": 103, "type": "Feature", "geometry": {"type": "Point", "coordinates": [-80.99001, 46.49]}, "properties": {"subdiv": "ON", "city_name": "Sudbury", "player_name": "Brendan Gaunce", "country_iso2": "CA", "current_team": "Vancouver Canucks", "hockey_reference_link": "https://www.hockey-reference.com/players/g/gauncbr01.html"}}, {"id": 700, "type": "Feature", "geometry": {"type": "Point", "coordinates": [-84.33325, 46.51677]}, "properties": {"subdiv": "QC", "city_name": "Sault Ste. Marie", "player_name": "Thomas Chabot", "country_iso2": "CA", "current_team": "Ottawa Senators", "hockey_reference_link": "https://www.hockey-reference.com/players/c/chaboth01.html"}}, {"id": 45, "type": "Feature", "geometry": {"type": "Point", "coordinates": [-79.4163, 43.70011]}, "properties": {"subdiv": "ON", "city_name": "Toronto", "player_name": "Andrew Cogliano", "country_iso2": "CA", "current_team": "Anaheim Ducks", "hockey_reference_link": "https://www.hockey-reference.com/players/c/coglian01.html"}}, {"id": 46, "type": "Feature", "geometry": {"type": "Point", "coordinates": [-83.74088, 42.27756]}, "properties": {"subdiv": "MI", "city_name": "Ann Arbor", "player_name": "Andrew Copp", "country_iso2": "US", "current_team": "Winnipeg Jets", "hockey_reference_link": "https://www.hockey-reference.com/players/c/coppan01.html"}}, {"id": 47, "type": "Feature", "geometry": {"type": "Point", "coordinates": [-79.4163, 43.80011]}, "properties": {"subdiv": "ON", "city_name": "Thornhill", "player_name": "Andrew Crescenzi", "country_iso2": "CA", "current_team": "Los Angeles Kings", "hockey_reference_link": "https://www.hockey-reference.com/players/c/crescan01.html"}}, {"id": 704, "type": "Feature", "geometry": {"type": "Point", "coordinates": [-71.53757, 43.20814]}, "properties": {"subdiv": "NH", "city_name": "Concord", "player_name": "Tim Schaller", "country_iso2": "US", "current_team": "Boston Bruins", "hockey_reference_link": "https://www.hockey-reference.com/players/s/schalti01.html"}}, {"id": 48, "type": "Feature", "geometry": {"type": "Point", "coordinates": [-122.60193, 49.21939]}, "properties": {"subdiv": "BC", "city_name": "Maple Ridge", "player_name": "Andrew Ladd", "country_iso2": "CA", "current_team": "New York Islanders", "hockey_reference_link": "https://www.hockey-reference.com/players/l/laddan01.html"}}, {"id": 50, "type": "Feature", "geometry": {"type": "Point", "coordinates": [-77.38277, 44.16682]}, "properties": {"subdiv": "ON", "city_name": "Belleville", "player_name": "Andrew Shaw", "country_iso2": "CA", "current_team": "Montreal Canadiens", "hockey_reference_link": "https://www.hockey-reference.com/players/s/shawan01.html"}}, {"id": 114, "type": "Feature", "geometry": {"type": "Point", "coordinates": [-80.09967, 43.9168]}, "properties": {"subdiv": "ON", "city_name": "Orangeville", "player_name": "Brett Ritchie", "country_iso2": "CA", "current_team": "Dallas Stars", "hockey_reference_link": "https://www.hockey-reference.com/players/r/ritchbr01.html"}}, {"id": 11, "type": "Feature", "geometry": {"type": "Point", "coordinates": [-63.13414, 46.23899]}, "properties": {"subdiv": "PE", "city_name": "Charlottetown", "player_name": "Adam McQuaid", "country_iso2": "CA", "current_team": "Boston Bruins", "hockey_reference_link": "https://www.hockey-reference.com/players/m/mcquaad01.html"}}, {"id": 12, "type": "Feature", "geometry": {"type": "Point", "coordinates": [-79.4163, 43.70011]}, "properties": {"subdiv": "ON", "city_name": "Toronto", "player_name": "Adam Pelech", "country_iso2": "CA", "current_team": "New York Islanders", "hockey_reference_link": "https://www.hockey-reference.com/players/p/pelecad01.html"}}, {"id": 115, "type": "Feature", "geometry": {"type": "Point", "coordinates": [-70.88977, 42.24177]}, "properties": {"subdiv": "MA", "city_name": "Hingham", "player_name": "Brian Boyle", "country_iso2": "US", "current_team": "New Jersey Devils", "hockey_reference_link": "https://www.hockey-reference.com/players/b/boylebr01.html"}}, {"id": 116, "type": "Feature", "geometry": {"type": "Point", "coordinates": [-70.45338, 43.49258]}, "properties": {"subdiv": "ME", "city_name": "Biddeford", "player_name": "Brian Dumoulin", "country_iso2": "US", "current_team": "Pittsburgh Penguins", "hockey_reference_link": "https://www.hockey-reference.com/players/d/dumoubr01.html"}}, {"id": 118, "type": "Feature", "geometry": {"type": "Point", "coordinates": [-73.75623, 42.65258]}, "properties": {"subdiv": "NY", "city_name": "Albany", "player_name": "Brian Lashoff", "country_iso2": "US", "current_team": "Detroit Red Wings", "hockey_reference_link": "https://www.hockey-reference.com/players/l/lashobr01.html"}}, {"id": 119, "type": "Feature", "geometry": {"type": "Point", "coordinates": [-93.27772, 44.76774]}, "properties": {"subdiv": "MN", "city_name": "Burnsville", "player_name": "Brock Boeser", "country_iso2": "US", "current_team": "Vancouver Canucks", "hockey_reference_link": "https://www.hockey-reference.com/players/b/boesebr01.html"}}, {"id": 120, "type": "Feature", "geometry": {"type": "Point", "coordinates": [-80.37761, 43.70604]}, "properties": {"subdiv": "ON", "city_name": "Fergus", "player_name": "Brock McGinn", "country_iso2": "CA", "current_team": "Carolina Hurricanes", "hockey_reference_link": "https://www.hockey-reference.com/players/m/mcginbr01.html"}}, {"id": 39, "type": "Feature", "geometry": {"type": "Point", "coordinates": [-93.34995, 44.88969]}, "properties": {"subdiv": "MN", "city_name": "Edina", "player_name": "Anders Lee", "country_iso2": "US", "current_team": "New York Islanders", "hockey_reference_link": "https://www.hockey-reference.com/players/l/leean01.html"}}, {"id": 41, "type": "Feature", "geometry": {"type": "Point", "coordinates": [-81.23304, 42.98339]}, "properties": {"subdiv": "ON", "city_name": "London", "player_name": "Andreas Athanasiou", "country_iso2": "CA", "current_team": "Detroit Red Wings", "hockey_reference_link": "https://www.hockey-reference.com/players/a/athanan01.html"}}, {"id": 128, "type": "Feature", "geometry": {"type": "Point", "coordinates": [-79.24958, 42.98342]}, "properties": {"subdiv": "ON", "city_name": "Welland", "player_name": "Cal Clutterbuck", "country_iso2": "CA", "current_team": "New York Islanders", "hockey_reference_link": "https://www.hockey-reference.com/players/c/cluttca01.html"}}, {"id": 733, "type": "Feature", "geometry": {"type": "Point", "coordinates": [-82.88881, 42.49698]}, "properties": {"subdiv": "MI", "city_name": "Saint Clair Shores", "player_name": "Tyler Motte", "country_iso2": "US", "current_team": "Columbus Blue Jackets", "hockey_reference_link": "https://www.hockey-reference.com/players/m/mottety01.html"}}, {"id": 129, "type": "Feature", "geometry": {"type": "Point", "coordinates": [-79.4163, 43.70011]}, "properties": {"subdiv": "ON", "city_name": "Toronto", "player_name": "Cal O'Reilly", "country_iso2": "CA", "current_team": "Minnesota Wild", "hockey_reference_link": "https://www.hockey-reference.com/players/o/oreilca01.html"}}, {"id": 133, "type": "Feature", "geometry": {"type": "Point", "coordinates": [-73.57818, 41.03371]}, "properties": {"subdiv": "CT", "city_name": "Riverside", "player_name": "Cam Atkinson", "country_iso2": "US", "current_team": "Columbus Blue Jackets", "hockey_reference_link": "https://www.hockey-reference.com/players/a/atkinca01.html"}}, {"id": 134, "type": "Feature", "geometry": {"type": "Point", "coordinates": [-83.01654, 42.30008]}, "properties": {"subdiv": "ON", "city_name": "Windsor", "player_name": "Cam Fowler", "country_iso2": "CA", "current_team": "Anaheim Ducks", "hockey_reference_link": "https://www.hockey-reference.com/players/f/fowleca01.html"}}, {"id": 139, "type": "Feature", "geometry": {"type": "Point", "coordinates": [-79.4163, 43.70011]}, "properties": {"subdiv": "ON", "city_name": "Toronto", "player_name": "Casey Cizikas", "country_iso2": "CA", "current_team": "New York Islanders", "hockey_reference_link": "https://www.hockey-reference.com/players/c/cizikca01.html"}}, {"id": 707, "type": "Feature", "geometry": {"type": "Point", "coordinates": [18.29021, 62.93065]}, "properties": {"subdiv": null, "city_name": "Nordingrå", "player_name": "Toby Enstrom", "country_iso2": "SE", "current_team": "Winnipeg Jets", "hockey_reference_link": "https://www.hockey-reference.com/players/e/enstrto01.html"}}, {"id": 141, "type": "Feature", "geometry": {"type": "Point", "coordinates": [-117.15726, 32.71533]}, "properties": {"subdiv": "CA", "city_name": "San Diego", "player_name": "Chad Ruhwedel", "country_iso2": "US", "current_team": "Pittsburgh Penguins", "hockey_reference_link": "https://www.hockey-reference.com/players/r/ruhwech01.html"}}, {"id": 142, "type": "Feature", "geometry": {"type": "Point", "coordinates": [-106.66892, 52.13238]}, "properties": {"subdiv": "SK", "city_name": "Saskatoon", "player_name": "Chandler Stephenson", "country_iso2": "CA", "current_team": "Washington Capitals", "hockey_reference_link": "https://www.hockey-reference.com/players/s/stephch02.html"}}, {"id": 143, "type": "Feature", "geometry": {"type": "Point", "coordinates": [-71.6491, 48.55009]}, "properties": {"subdiv": "QC", "city_name": "Alma", "player_name": "Charles Hudon", "country_iso2": "CA", "current_team": "Montreal Canadiens", "hockey_reference_link": "https://www.hockey-reference.com/players/h/hudonch01.html"}}, {"id": 145, "type": "Feature", "geometry": {"type": "Point", "coordinates": [-73.65791, 40.58844]}, "properties": {"subdiv": "NY", "city_name": "Long Beach", "player_name": "Charlie McAvoy", "country_iso2": "US", "current_team": "Boston Bruins", "hockey_reference_link": "https://www.hockey-reference.com/players/m/mcavoch01.html"}}, {"id": 146, "type": "Feature", "geometry": {"type": "Point", "coordinates": [-117.92534, 33.87029]}, "properties": {"subdiv": "CA", "city_name": "Fullerton", "player_name": "Chase Balisy", "country_iso2": "US", "current_team": "Florida Panthers", "hockey_reference_link": "https://www.hockey-reference.com/players/b/balisch01.html"}}, {"id": 147, "type": "Feature", "geometry": {"type": "Point", "coordinates": [-79.42068, 44.60868]}, "properties": {"subdiv": "ON", "city_name": "Orillia", "player_name": "Chris Bigras", "country_iso2": "CA", "current_team": "Colorado Avalanche", "hockey_reference_link": "https://www.hockey-reference.com/players/b/bigrach01.html"}}, {"id": 148, "type": "Feature", "geometry": {"type": "Point", "coordinates": [-79.4163, 43.70011]}, "properties": {"subdiv": "ON", "city_name": "Toronto", "player_name": "Chris Didomenico", "country_iso2": "CA", "current_team": "Tampa Bay Lightning", "hockey_reference_link": "https://www.hockey-reference.com/players/d/didomch01.html"}}, {"id": 149, "type": "Feature", "geometry": {"type": "Point", "coordinates": [-70.99672, 42.6612]}, "properties": {"subdiv": "MA", "city_name": "Boxford", "player_name": "Chris Kreider", "country_iso2": "US", "current_team": "New York Rangers", "hockey_reference_link": "https://www.hockey-reference.com/players/k/kreidch01.html"}}, {"id": 754, "type": "Feature", "geometry": {"type": "Point", "coordinates": [-73.99847, 42.29897]}, "properties": {"subdiv": "NY", "city_name": "Cairo", "player_name": "Wade Megan", "country_iso2": "US", "current_team": "St. Louis Blues", "hockey_reference_link": "https://www.hockey-reference.com/players/m/meganwa01.html"}}, {"id": 150, "type": "Feature", "geometry": {"type": "Point", "coordinates": [-104.6178, 50.45008]}, "properties": {"subdiv": "SK", "city_name": "Regina", "player_name": "Chris Kunitz", "country_iso2": "CA", "current_team": "Tampa Bay Lightning", "hockey_reference_link": "https://www.hockey-reference.com/players/k/kunitch01.html"}}, {"id": 151, "type": "Feature", "geometry": {"type": "Point", "coordinates": [-79.4163, 43.70011]}, "properties": {"subdiv": "ON", "city_name": "Toronto", "player_name": "Chris Stewart", "country_iso2": "CA", "current_team": "Minnesota Wild", "hockey_reference_link": "https://www.hockey-reference.com/players/s/stewach02.html"}}, {"id": 152, "type": "Feature", "geometry": {"type": "Point", "coordinates": [-79.4163, 43.70011]}, "properties": {"subdiv": "ON", "city_name": "Toronto", "player_name": "Chris Tanev", "country_iso2": "CA", "current_team": "Vancouver Canucks", "hockey_reference_link": "https://www.hockey-reference.com/players/t/tanevch01.html"}}, {"id": 758, "type": "Feature", "geometry": {"type": "Point", "coordinates": [-73.63518, 45.43038]}, "properties": {"subdiv": "QC", "city_name": "Lasalle", "player_name": "William Carrier", "country_iso2": "CA", "current_team": "Vegas Golden Knights", "hockey_reference_link": "https://www.hockey-reference.com/players/c/carriwi01.html"}}, {"id": 153, "type": "Feature", "geometry": {"type": "Point", "coordinates": [-84.33325, 46.51677]}, "properties": {"subdiv": "ON", "city_name": "Sault Ste. Marie", "player_name": "Chris Thorburn", "country_iso2": "CA", "current_team": "St. Louis Blues", "hockey_reference_link": "https://www.hockey-reference.com/players/t/thorbch01.html"}}, {"id": 154, "type": "Feature", "geometry": {"type": "Point", "coordinates": [-79.46632, 44.25011]}, "properties": {"subdiv": "ON", "city_name": "Keswick", "player_name": "Chris Tierney", "country_iso2": "CA", "current_team": "San Jose Sharks", "hockey_reference_link": "https://www.hockey-reference.com/players/t/tiernch01.html"}}, {"id": 131, "type": "Feature", "geometry": {"type": "Point", "coordinates": [14.80906, 56.87767]}, "properties": {"subdiv": null, "city_name": "Vaxjo", "player_name": "Calle Rosen", "country_iso2": "SE", "current_team": "Toronto Maple Leafs", "hockey_reference_link": "https://www.hockey-reference.com/players/r/rosenca01.html"}}, {"id": 155, "type": "Feature", "geometry": {"type": "Point", "coordinates": [-71.2495, 42.14177]}, "properties": {"subdiv": "MA", "city_name": "Walpole", "player_name": "Chris Wagner", "country_iso2": "US", "current_team": "Anaheim Ducks", "hockey_reference_link": "https://www.hockey-reference.com/players/w/wagnech01.html"}}, {"id": 159, "type": "Feature", "geometry": {"type": "Point", "coordinates": [-87.65005, 41.85003]}, "properties": {"subdiv": "IL", "city_name": "Chicago", "player_name": "Christian Fischer", "country_iso2": "US", "current_team": "Arizona Coyotes", "hockey_reference_link": "https://www.hockey-reference.com/players/f/fischch01.html"}}, {"id": 137, "type": "Feature", "geometry": {"type": "Point", "coordinates": [13.00073, 55.60587]}, "properties": {"subdiv": null, "city_name": "Malmo", "player_name": "Carl Soderberg", "country_iso2": "SE", "current_team": "Colorado Avalanche", "hockey_reference_link": "https://www.hockey-reference.com/players/s/soderca01.html"}}, {"id": 164, "type": "Feature", "geometry": {"type": "Point", "coordinates": [-90.57707, 38.66311]}, "properties": {"subdiv": "MO", "city_name": "Chesterfield", "player_name": "Clayton Keller", "country_iso2": "US", "current_team": "Arizona Coyotes", "hockey_reference_link": "https://www.hockey-reference.com/players/k/kellecl01.html"}}, {"id": 165, "type": "Feature", "geometry": {"type": "Point", "coordinates": [-75.69812, 45.41117]}, "properties": {"subdiv": "ON", "city_name": "Ottawa", "player_name": "Cody Ceci", "country_iso2": "CA", "current_team": "Ottawa Senators", "hockey_reference_link": "https://www.hockey-reference.com/players/c/cecico01.html"}}, {"id": 166, "type": "Feature", "geometry": {"type": "Point", "coordinates": [-97.14704, 49.8844]}, "properties": {"subdiv": "MB", "city_name": "Winnipeg", "player_name": "Cody Eakin", "country_iso2": "CA", "current_team": "Vegas Golden Knights", "hockey_reference_link": "https://www.hockey-reference.com/players/e/eakinco01.html"}}, {"id": 743, "type": "Feature", "geometry": {"type": "Point", "coordinates": [18.71525, 63.29091]}, "properties": {"subdiv": null, "city_name": "Örnsköldsvik", "player_name": "Victor Hedman", "country_iso2": "SE", "current_team": "Tampa Bay Lightning", "hockey_reference_link": "https://www.hockey-reference.com/players/h/hedmavi01.html"}}, {"id": 167, "type": "Feature", "geometry": {"type": "Point", "coordinates": [-118.98565, 50.83312]}, "properties": {"subdiv": "BC", "city_name": "Sicamous", "player_name": "Cody Franson", "country_iso2": "CA", "current_team": "Chicago Blackhawks", "hockey_reference_link": "https://www.hockey-reference.com/players/f/fransco01.html"}}, {"id": 168, "type": "Feature", "geometry": {"type": "Point", "coordinates": [-101.28371, 50.62669]}, "properties": {"subdiv": "MB", "city_name": "Binscarth", "player_name": "Cody McLeod", "country_iso2": "CA", "current_team": "Nashville Predators", "hockey_reference_link": "https://www.hockey-reference.com/players/m/mcleoco01.html"}}, {"id": 746, "type": "Feature", "geometry": {"type": "Point", "coordinates": [20.95279, 64.75067]}, "properties": {"subdiv": null, "city_name": "Skellefteå", "player_name": "Viktor Arvidsson", "country_iso2": "SE", "current_team": "Nashville Predators", "hockey_reference_link": "https://www.hockey-reference.com/players/a/arvidvi01.html"}}, {"id": 169, "type": "Feature", "geometry": {"type": "Point", "coordinates": [-84.33325, 46.51677]}, "properties": {"subdiv": "ON", "city_name": "Sault Ste. Marie", "player_name": "Colin Miller", "country_iso2": "CA", "current_team": "Vegas Golden Knights", "hockey_reference_link": "https://www.hockey-reference.com/players/m/milleco02.html"}}, {"id": 170, "type": "Feature", "geometry": {"type": "Point", "coordinates": [-73.62846, 41.02649]}, "properties": {"subdiv": "CT", "city_name": "Greenwich", "player_name": "Colin Wilson", "country_iso2": "US", "current_team": "Colorado Avalanche", "hockey_reference_link": "https://www.hockey-reference.com/players/w/wilsoco01.html"}}, {"id": 171, "type": "Feature", "geometry": {"type": "Point", "coordinates": [-113.63533, 53.63344]}, "properties": {"subdiv": "AB", "city_name": "St. Albert", "player_name": "Colton Parayko", "country_iso2": "CA", "current_team": "St. Louis Blues", "hockey_reference_link": "https://www.hockey-reference.com/players/p/parayco01.html"}}, {"id": 752, "type": "Feature", "geometry": {"type": "Point", "coordinates": [33.83333, 53.5]}, "properties": {"subdiv": null, "city_name": "Zhukovskiy Rayon", "player_name": "Vladislav Namestnikov", "country_iso2": "RU", "current_team": "Tampa Bay Lightning", "hockey_reference_link": "https://www.hockey-reference.com/players/n/namesvl01.html"}}, {"id": 172, "type": "Feature", "geometry": {"type": "Point", "coordinates": [-113.802, 52.26682]}, "properties": {"subdiv": "AB", "city_name": "Red Deer", "player_name": "Colton Sceviour", "country_iso2": "CA", "current_team": "Florida Panthers", "hockey_reference_link": "https://www.hockey-reference.com/players/s/scevico01.html"}}, {"id": 174, "type": "Feature", "geometry": {"type": "Point", "coordinates": [-71.05366, 42.40843]}, "properties": {"subdiv": "MA", "city_name": "Everett", "player_name": "Connor Brickley", "country_iso2": "US", "current_team": "Florida Panthers", "hockey_reference_link": "https://www.hockey-reference.com/players/b/brickco01.html"}}, {"id": 175, "type": "Feature", "geometry": {"type": "Point", "coordinates": [-79.4163, 43.70011]}, "properties": {"subdiv": "ON", "city_name": "Toronto", "player_name": "Connor Brown", "country_iso2": "CA", "current_team": "Toronto Maple Leafs", "hockey_reference_link": "https://www.hockey-reference.com/players/b/brownco02.html"}}, {"id": 181, "type": "Feature", "geometry": {"type": "Point", "coordinates": [-79.83713, 43.38621]}, "properties": {"subdiv": "ON", "city_name": "Burlington", "player_name": "Cory Conacher", "country_iso2": "CA", "current_team": "Tampa Bay Lightning", "hockey_reference_link": "https://www.hockey-reference.com/players/c/conacco01.html"}}, {"id": 184, "type": "Feature", "geometry": {"type": "Point", "coordinates": [-110.67661, 50.03928]}, "properties": {"subdiv": "AB", "city_name": "Medicine Hat", "player_name": "Curtis Valk", "country_iso2": "CA", "current_team": "Florida Panthers", "hockey_reference_link": "https://www.hockey-reference.com/players/v/valkcu01.html"}}, {"id": 759, "type": "Feature", "geometry": {"type": "Point", "coordinates": [17.85476, 59.62157]}, "properties": {"subdiv": null, "city_name": "Märsta", "player_name": "William Karlsson", "country_iso2": "SE", "current_team": "Vegas Golden Knights", "hockey_reference_link": "https://www.hockey-reference.com/players/k/karlswi01.html"}}, {"id": 185, "type": "Feature", "geometry": {"type": "Point", "coordinates": [-97.14704, 49.8844]}, "properties": {"subdiv": "MB", "city_name": "Winnipeg", "player_name": "D. Keith", "country_iso2": "CA", "current_team": "Chicago Blackhawks", "hockey_reference_link": "https://www.hockey-reference.com/players/k/keithdu01.html"}}, {"id": 186, "type": "Feature", "geometry": {"type": "Point", "coordinates": [-90.18428, 38.8906]}, "properties": {"subdiv": "IL", "city_name": "Alton", "player_name": "Dakota Mermis", "country_iso2": "US", "current_team": "Arizona Coyotes", "hockey_reference_link": "https://www.hockey-reference.com/players/m/mermida01.html"}}, {"id": 187, "type": "Feature", "geometry": {"type": "Point", "coordinates": [-97.14704, 49.8844]}, "properties": {"subdiv": "MB", "city_name": "Winnipeg", "player_name": "Dale Weise", "country_iso2": "CA", "current_team": "Philadelphia Flyers", "hockey_reference_link": "https://www.hockey-reference.com/players/w/weiseda01.html"}}, {"id": 157, "type": "Feature", "geometry": {"type": "Point", "coordinates": [11.96679, 57.70716]}, "properties": {"subdiv": null, "city_name": "Gothenburg", "player_name": "Christian Djoos", "country_iso2": "SE", "current_team": "Washington Capitals", "hockey_reference_link": "https://www.hockey-reference.com/players/d/djoosch01.html"}}, {"id": 188, "type": "Feature", "geometry": {"type": "Point", "coordinates": [-82.73312, 42.10009]}, "properties": {"subdiv": "ON", "city_name": "Kingsville", "player_name": "Dalton Prout", "country_iso2": "CA", "current_team": "New Jersey Devils", "hockey_reference_link": "https://www.hockey-reference.com/players/p/proutda01.html"}}, {"id": 160, "type": "Feature", "geometry": {"type": "Point", "coordinates": [11.96679, 57.70716]}, "properties": {"subdiv": null, "city_name": "Gothenburg", "player_name": "Christian Folin", "country_iso2": "SE", "current_team": "Los Angeles Kings", "hockey_reference_link": "https://www.hockey-reference.com/players/f/folinch01.html"}}, {"id": 162, "type": "Feature", "geometry": {"type": "Point", "coordinates": [7.15128, 46.80237]}, "properties": {"subdiv": null, "city_name": "Fribourg", "player_name": "Christoph Bertschy", "country_iso2": "CH", "current_team": "Minnesota Wild", "hockey_reference_link": "https://www.hockey-reference.com/players/b/bertsch02.html"}}, {"id": 190, "type": "Feature", "geometry": {"type": "Point", "coordinates": [-79.24958, 42.98342]}, "properties": {"subdiv": "ON", "city_name": "Welland", "player_name": "Dan Girardi", "country_iso2": "CA", "current_team": "Tampa Bay Lightning", "hockey_reference_link": "https://www.hockey-reference.com/players/g/girarda01.html"}}, {"id": 192, "type": "Feature", "geometry": {"type": "Point", "coordinates": [-72.48241, 45.88336]}, "properties": {"subdiv": "QC", "city_name": "Drummondville", "player_name": "Danick Martel", "country_iso2": "CA", "current_team": "Philadelphia Flyers", "hockey_reference_link": "https://www.hockey-reference.com/players/m/marteda01.html"}}, {"id": 193, "type": "Feature", "geometry": {"type": "Point", "coordinates": [-113.3187, 53.51684]}, "properties": {"subdiv": "AB", "city_name": "Sherwood Park", "player_name": "Daniel Carr", "country_iso2": "CA", "current_team": "Montreal Canadiens", "hockey_reference_link": "https://www.hockey-reference.com/players/c/carrda01.html"}}, {"id": 196, "type": "Feature", "geometry": {"type": "Point", "coordinates": [-79.4163, 43.70011]}, "properties": {"subdiv": "ON", "city_name": "Toronto", "player_name": "Daniel Winnik", "country_iso2": "CA", "current_team": "Minnesota Wild", "hockey_reference_link": "https://www.hockey-reference.com/players/w/winnida01.html"}}, {"id": 197, "type": "Feature", "geometry": {"type": "Point", "coordinates": [-83.04575, 42.33143]}, "properties": {"subdiv": "MI", "city_name": "Detroit", "player_name": "Danny DeKeyser", "country_iso2": "US", "current_team": "Detroit Red Wings", "hockey_reference_link": "https://www.hockey-reference.com/players/d/dekeyda01.html"}}, {"id": 199, "type": "Feature", "geometry": {"type": "Point", "coordinates": [-79.84963, 43.25011]}, "properties": {"subdiv": "ON", "city_name": "Hamilton", "player_name": "Darnell Nurse", "country_iso2": "CA", "current_team": "Edmonton Oilers", "hockey_reference_link": "https://www.hockey-reference.com/players/n/nurseda01.html"}}, {"id": 200, "type": "Feature", "geometry": {"type": "Point", "coordinates": [-97.00064, 50.25001]}, "properties": {"subdiv": "MB", "city_name": "St. Andrews", "player_name": "Darren Helm", "country_iso2": "CA", "current_team": "Detroit Red Wings", "hockey_reference_link": "https://www.hockey-reference.com/players/h/helmda01.html"}}, {"id": 201, "type": "Feature", "geometry": {"type": "Point", "coordinates": [-93.26384, 44.97997]}, "properties": {"subdiv": "MN", "city_name": "Minneapolis", "player_name": "David Backes", "country_iso2": "US", "current_team": "Boston Bruins", "hockey_reference_link": "https://www.hockey-reference.com/players/b/backeda01.html"}}, {"id": 218, "type": "Feature", "geometry": {"type": "Point", "coordinates": [-75.83265, 45.5001]}, "properties": {"subdiv": "QC", "city_name": "Hull", "player_name": "Derick Brassard", "country_iso2": "CA", "current_team": "Ottawa Senators", "hockey_reference_link": "https://www.hockey-reference.com/players/b/brassde01.html"}}, {"id": 220, "type": "Feature", "geometry": {"type": "Point", "coordinates": [-113.46871, 53.55014]}, "properties": {"subdiv": "AB", "city_name": "Edmonton", "player_name": "Deryk Engelland", "country_iso2": "CA", "current_team": "Vegas Golden Knights", "hockey_reference_link": "https://www.hockey-reference.com/players/e/engelde01.html"}}, {"id": 221, "type": "Feature", "geometry": {"type": "Point", "coordinates": [-79.25666, 43.77223]}, "properties": {"subdiv": "ON", "city_name": "Scarborough", "player_name": "Devante Smith-Pelly", "country_iso2": "CA", "current_team": "Washington Capitals", "hockey_reference_link": "https://www.hockey-reference.com/players/s/smithde06.html"}}, {"id": 3, "type": "Feature", "geometry": {"type": "Point", "coordinates": [-73.4236, 46.0164]}, "properties": {"subdiv": "QC", "city_name": "Joliette", "player_name": "A.J. Greer", "country_iso2": "CA", "current_team": "Colorado Avalanche", "hockey_reference_link": "https://www.hockey-reference.com/players/g/greeraj01.html"}}, {"id": 4, "type": "Feature", "geometry": {"type": "Point", "coordinates": [-83.01654, 42.30008]}, "properties": {"subdiv": "ON", "city_name": "Windsor", "player_name": "Aaron Ekblad", "country_iso2": "CA", "current_team": "Florida Panthers", "hockey_reference_link": "https://www.hockey-reference.com/players/e/ekblaaa01.html"}}, {"id": 222, "type": "Feature", "geometry": {"type": "Point", "coordinates": [-79.03288, 43.85012]}, "properties": {"subdiv": "ON", "city_name": "Ajax", "player_name": "Devin Shore", "country_iso2": "CA", "current_team": "Dallas Stars", "hockey_reference_link": "https://www.hockey-reference.com/players/s/shorede01.html"}}, {"id": 223, "type": "Feature", "geometry": {"type": "Point", "coordinates": [-113.46871, 53.55014]}, "properties": {"subdiv": "AB", "city_name": "Edmonton", "player_name": "Dion Phaneuf", "country_iso2": "CA", "current_team": "Ottawa Senators", "hockey_reference_link": "https://www.hockey-reference.com/players/p/phanedi01.html"}}, {"id": 227, "type": "Feature", "geometry": {"type": "Point", "coordinates": [-79.4163, 43.80011]}, "properties": {"subdiv": "ON", "city_name": "Thornhill", "player_name": "Dominic Moore", "country_iso2": "CA", "current_team": "Toronto Maple Leafs", "hockey_reference_link": "https://www.hockey-reference.com/players/m/mooredo01.html"}}, {"id": 228, "type": "Feature", "geometry": {"type": "Point", "coordinates": [-92.10658, 46.78327]}, "properties": {"subdiv": "MN", "city_name": "Duluth", "player_name": "Dominic Toninato", "country_iso2": "US", "current_team": "Colorado Avalanche", "hockey_reference_link": "https://www.hockey-reference.com/players/t/tonindo01.html"}}, {"id": 229, "type": "Feature", "geometry": {"type": "Point", "coordinates": [-79.4163, 43.70011]}, "properties": {"subdiv": "ON", "city_name": "Toronto", "player_name": "Dougie Hamilton", "country_iso2": "CA", "current_team": "Calgary Flames", "hockey_reference_link": "https://www.hockey-reference.com/players/h/hamildo01.html"}}, {"id": 230, "type": "Feature", "geometry": {"type": "Point", "coordinates": [-79.13289, 43.90012]}, "properties": {"subdiv": "ON", "city_name": "Pickering", "player_name": "Drake Caggiula", "country_iso2": "CA", "current_team": "Edmonton Oilers", "hockey_reference_link": "https://www.hockey-reference.com/players/c/caggidr01.html"}}, {"id": 10, "type": "Feature", "geometry": {"type": "Point", "coordinates": [-90.19789, 38.62727]}, "properties": {"subdiv": "MO", "city_name": "St Louis", "player_name": "Adam Lowry", "country_iso2": "US", "current_team": "Winnipeg Jets", "hockey_reference_link": "https://www.hockey-reference.com/players/l/lowryad01.html"}}, {"id": 194, "type": "Feature", "geometry": {"type": "Point", "coordinates": [13.41053, 52.52437]}, "properties": {"subdiv": null, "city_name": "Berlin", "player_name": "Daniel O'Regan", "country_iso2": "DE", "current_team": "San Jose Sharks", "hockey_reference_link": "https://www.hockey-reference.com/players/o/oregada01.html"}}, {"id": 182, "type": "Feature", "geometry": {"type": "Point", "coordinates": [-89.40123, 43.07305]}, "properties": {"subdiv": "WI", "city_name": "Madison", "player_name": "Craig Smith", "country_iso2": "US", "current_team": "Nashville Predators", "hockey_reference_link": "https://www.hockey-reference.com/players/s/smithcr01.html"}}, {"id": 25, "type": "Feature", "geometry": {"type": "Point", "coordinates": [-63.51171, 44.88392]}, "properties": {"subdiv": "NS", "city_name": "Halifax Stanfield International Airport", "player_name": "Alex Killorn", "country_iso2": "CA", "current_team": "Tampa Bay Lightning", "hockey_reference_link": "https://www.hockey-reference.com/players/k/killoal01.html"}}, {"id": 49, "type": "Feature", "geometry": {"type": "Point", "coordinates": [-102.41708, 54.91673]}, "properties": {"subdiv": "NS", "city_name": "Judique Lake", "player_name": "Andrew MacDonald", "country_iso2": "CA", "current_team": "Philadelphia Flyers", "hockey_reference_link": "https://www.hockey-reference.com/players/m/macdoan01.html"}}, {"id": 53, "type": "Feature", "geometry": {"type": "Point", "coordinates": [-73.11358, 46.04178]}, "properties": {"subdiv": "QC", "city_name": "Sorel", "player_name": "Anthony Beauvillier", "country_iso2": "CA", "current_team": "New York Islanders", "hockey_reference_link": "https://www.hockey-reference.com/players/b/beauvan01.html"}}, {"id": 54, "type": "Feature", "geometry": {"type": "Point", "coordinates": [-78.94976, 42.967]}, "properties": {"subdiv": "NY", "city_name": "Beaver Island State Park", "player_name": "Anthony Bitetto", "country_iso2": "US", "current_team": "Nashville Predators", "hockey_reference_link": "https://www.hockey-reference.com/players/b/bitetan01.html"}}, {"id": 243, "type": "Feature", "geometry": {"type": "Point", "coordinates": [-89.25018, 48.38202]}, "properties": {"subdiv": "ON", "city_name": "Thunder Bay", "player_name": "Eric Staal", "country_iso2": "CA", "current_team": "Minnesota Wild", "hockey_reference_link": "https://www.hockey-reference.com/players/s/staaler01.html"}}, {"id": 244, "type": "Feature", "geometry": {"type": "Point", "coordinates": [-75.69812, 45.41117]}, "properties": {"subdiv": "ON", "city_name": "Ottawa", "player_name": "Erik Gudbranson", "country_iso2": "CA", "current_team": "Vancouver Canucks", "hockey_reference_link": "https://www.hockey-reference.com/players/g/gudbrer01.html"}}, {"id": 249, "type": "Feature", "geometry": {"type": "Point", "coordinates": [-123.11934, 49.24966]}, "properties": {"subdiv": "BC", "city_name": "Vancouver", "player_name": "Evander Kane", "country_iso2": "CA", "current_team": "Buffalo Sabres", "hockey_reference_link": "https://www.hockey-reference.com/players/k/kaneev01.html"}}, {"id": 256, "type": "Feature", "geometry": {"type": "Point", "coordinates": [-73.11358, 46.04178]}, "properties": {"subdiv": "QC", "city_name": "Sorel", "player_name": "Francois Beauchemin", "country_iso2": "CA", "current_team": "Anaheim Ducks", "hockey_reference_link": "https://www.hockey-reference.com/players/b/beaucfr01.html"}}, {"id": 209, "type": "Feature", "geometry": {"type": "Point", "coordinates": [7.90329, 47.34999]}, "properties": {"subdiv": null, "city_name": "Olten", "player_name": "Denis Malgin", "country_iso2": "CH", "current_team": "Florida Panthers", "hockey_reference_link": "https://www.hockey-reference.com/players/m/malgide01.html"}}, {"id": 257, "type": "Feature", "geometry": {"type": "Point", "coordinates": [-79.4163, 43.70011]}, "properties": {"subdiv": "ON", "city_name": "Toronto", "player_name": "Frank Corrado", "country_iso2": "CA", "current_team": "Pittsburgh Penguins", "hockey_reference_link": "https://www.hockey-reference.com/players/c/corrafr01.html"}}, {"id": 258, "type": "Feature", "geometry": {"type": "Point", "coordinates": [-72.51259, 42.06454]}, "properties": {"subdiv": "MA", "city_name": "East Longmeadow", "player_name": "Frank Vatrano", "country_iso2": "US", "current_team": "Boston Bruins", "hockey_reference_link": "https://www.hockey-reference.com/players/v/vatrafr01.html"}}, {"id": 260, "type": "Feature", "geometry": {"type": "Point", "coordinates": [-79.4163, 43.70011]}, "properties": {"subdiv": "ON", "city_name": "Toronto", "player_name": "Freddie Hamilton", "country_iso2": "CA", "current_team": "Calgary Flames", "hockey_reference_link": "https://www.hockey-reference.com/players/h/hamilfr01.html"}}, {"id": 263, "type": "Feature", "geometry": {"type": "Point", "coordinates": [-106.46791, 52.06678]}, "properties": {"subdiv": "SK", "city_name": "Floral", "player_name": "G. Howe", "country_iso2": "CA", "current_team": null, "hockey_reference_link": "https://www.hockey-reference.com/players/h/howego01.html"}}, {"id": 264, "type": "Feature", "geometry": {"type": "Point", "coordinates": [-68.52396, 48.44879]}, "properties": {"subdiv": "QC", "city_name": "Rimouski", "player_name": "Gabriel Bourque", "country_iso2": "CA", "current_team": "Colorado Avalanche", "hockey_reference_link": "https://www.hockey-reference.com/players/b/bourqga01.html"}}, {"id": 268, "type": "Feature", "geometry": {"type": "Point", "coordinates": [-70.47672, 43.36175]}, "properties": {"subdiv": "ME", "city_name": "Kennebunkport", "player_name": "Garnet Hathaway", "country_iso2": "US", "current_team": "Calgary Flames", "hockey_reference_link": "https://www.hockey-reference.com/players/h/hathaga01.html"}}, {"id": 269, "type": "Feature", "geometry": {"type": "Point", "coordinates": [-79.4163, 43.70011]}, "properties": {"subdiv": "ON", "city_name": "Toronto", "player_name": "Gemel Smith", "country_iso2": "CA", "current_team": "Dallas Stars", "hockey_reference_link": "https://www.hockey-reference.com/players/s/smithge02.html"}}, {"id": 270, "type": "Feature", "geometry": {"type": "Point", "coordinates": [-73.692, 45.56995]}, "properties": {"subdiv": "QC", "city_name": "Laval", "player_name": "Giovanni Fiore", "country_iso2": "CA", "current_team": "Anaheim Ducks", "hockey_reference_link": "https://www.hockey-reference.com/players/f/fioregi01.html"}}, {"id": 271, "type": "Feature", "geometry": {"type": "Point", "coordinates": [-81.18038, 42.77361]}, "properties": {"subdiv": "ON", "city_name": "St. Thomas", "player_name": "Greg McKegg", "country_iso2": "CA", "current_team": "Pittsburgh Penguins", "hockey_reference_link": "https://www.hockey-reference.com/players/m/mckeggr01.html"}}, {"id": 272, "type": "Feature", "geometry": {"type": "Point", "coordinates": [-83.0302, 42.58031]}, "properties": {"subdiv": "MI", "city_name": "Sterling Heights", "player_name": "Greg Pateryn", "country_iso2": "US", "current_team": "Dallas Stars", "hockey_reference_link": "https://www.hockey-reference.com/players/p/patergr01.html"}}, {"id": 278, "type": "Feature", "geometry": {"type": "Point", "coordinates": [-102.26765, 49.63334]}, "properties": {"subdiv": "SK", "city_name": "Carlyle", "player_name": "Haydn Fleury", "country_iso2": "CA", "current_team": "Carolina Hurricanes", "hockey_reference_link": "https://www.hockey-reference.com/players/f/fleurha01.html"}}, {"id": 224, "type": "Feature", "geometry": {"type": "Point", "coordinates": [73.36859, 54.99244]}, "properties": {"subdiv": null, "city_name": "Omsk", "player_name": "Dmitrij Jaskin", "country_iso2": "RU", "current_team": "St. Louis Blues", "hockey_reference_link": "https://www.hockey-reference.com/players/j/jaskidm01.html"}}, {"id": 282, "type": "Feature", "geometry": {"type": "Point", "coordinates": [-83.74088, 42.27756]}, "properties": {"subdiv": "MI", "city_name": "Ann Arbor", "player_name": "Ian Cole", "country_iso2": "US", "current_team": "Pittsburgh Penguins", "hockey_reference_link": "https://www.hockey-reference.com/players/c/coleia01.html"}}, {"id": 287, "type": "Feature", "geometry": {"type": "Point", "coordinates": [-123.3693, 48.43294]}, "properties": {"subdiv": "BC", "city_name": "Victoria", "player_name": "J. Benn", "country_iso2": "CA", "current_team": "Dallas Stars", "hockey_reference_link": "https://www.hockey-reference.com/players/b/bennja01.html"}}, {"id": 288, "type": "Feature", "geometry": {"type": "Point", "coordinates": [-113.46871, 53.55014]}, "properties": {"subdiv": "AB", "city_name": "Edmonton", "player_name": "J. Iginla", "country_iso2": "CA", "current_team": null, "hockey_reference_link": "https://www.hockey-reference.com/players/i/iginlja01.html"}}, {"id": 290, "type": "Feature", "geometry": {"type": "Point", "coordinates": [-81.23304, 42.98339]}, "properties": {"subdiv": "ON", "city_name": "London", "player_name": "J. Thornton", "country_iso2": "CA", "current_team": "San Jose Sharks", "hockey_reference_link": "https://www.hockey-reference.com/players/t/thornjo01.html"}}, {"id": 291, "type": "Feature", "geometry": {"type": "Point", "coordinates": [-97.14704, 49.8844]}, "properties": {"subdiv": "MB", "city_name": "Winnipeg", "player_name": "J. Toews", "country_iso2": "CA", "current_team": "Chicago Blackhawks", "hockey_reference_link": "https://www.hockey-reference.com/players/t/toewsjo01.html"}}, {"id": 292, "type": "Feature", "geometry": {"type": "Point", "coordinates": [-93.27772, 44.76774]}, "properties": {"subdiv": "MN", "city_name": "Burnsville", "player_name": "J.T. Brown", "country_iso2": "US", "current_team": "Tampa Bay Lightning", "hockey_reference_link": "https://www.hockey-reference.com/players/b/brownjt01.html"}}, {"id": 293, "type": "Feature", "geometry": {"type": "Point", "coordinates": [-87.82895, 42.12753]}, "properties": {"subdiv": "IL", "city_name": "Northbrook", "player_name": "J.T. Compher", "country_iso2": "US", "current_team": "Colorado Avalanche", "hockey_reference_link": "https://www.hockey-reference.com/players/c/comphj.01.html"}}, {"id": 294, "type": "Feature", "geometry": {"type": "Point", "coordinates": [-80.54035, 40.83395]}, "properties": {"subdiv": "OH", "city_name": "East Palestine", "player_name": "J.T. Miller", "country_iso2": "US", "current_team": "New York Rangers", "hockey_reference_link": "https://www.hockey-reference.com/players/m/millejt01.html"}}, {"id": 295, "type": "Feature", "geometry": {"type": "Point", "coordinates": [-104.9847, 39.73915]}, "properties": {"subdiv": "CO", "city_name": "Denver", "player_name": "Jaccob Slavin", "country_iso2": "US", "current_team": "Carolina Hurricanes", "hockey_reference_link": "https://www.hockey-reference.com/players/s/slavija01.html"}}, {"id": 60, "type": "Feature", "geometry": {"type": "Point", "coordinates": [-73.89729, 45.53838]}, "properties": {"subdiv": "QC", "city_name": "Saint-Agapit", "player_name": "Antoine Vermette", "country_iso2": "CA", "current_team": "Anaheim Ducks", "hockey_reference_link": "https://www.hockey-reference.com/players/v/vermean01.html"}}, {"id": 72, "type": "Feature", "geometry": {"type": "Point", "coordinates": [-117.94145, 33.77391]}, "properties": {"subdiv": "CA", "city_name": "Garden Grove", "player_name": "Beau Bennett", "country_iso2": "US", "current_team": "St. Louis Blues", "hockey_reference_link": "https://www.hockey-reference.com/players/b/bennebe01.html"}}, {"id": 79, "type": "Feature", "geometry": {"type": "Point", "coordinates": [-108.51441, 54.12274]}, "properties": {"subdiv": "SK", "city_name": "Meadow Lake Airport", "player_name": "Blake Comeau", "country_iso2": "CA", "current_team": "Colorado Avalanche", "hockey_reference_link": "https://www.hockey-reference.com/players/c/comeabl01.html"}}, {"id": 86, "type": "Feature", "geometry": {"type": "Point", "coordinates": [-65.44917, 47.00778]}, "properties": {"subdiv": "NB", "city_name": "Miramichi Airport", "player_name": "Brad Malone", "country_iso2": "CA", "current_team": "Edmonton Oilers", "hockey_reference_link": "https://www.hockey-reference.com/players/m/malonbr01.html"}}, {"id": 87, "type": "Feature", "geometry": {"type": "Point", "coordinates": [-63.51171, 44.88392]}, "properties": {"subdiv": "NS", "city_name": "Halifax Stanfield International Airport", "player_name": "Brad Marchand", "country_iso2": "CA", "current_team": "Boston Bruins", "hockey_reference_link": "https://www.hockey-reference.com/players/m/marchbr03.html"}}, {"id": 89, "type": "Feature", "geometry": {"type": "Point", "coordinates": [-93.24272, 44.64969]}, "properties": {"subdiv": "MN", "city_name": "Lakeville", "player_name": "Brady Skjei", "country_iso2": "US", "current_team": "New York Rangers", "hockey_reference_link": "https://www.hockey-reference.com/players/s/skjeibr01.html"}}, {"id": 245, "type": "Feature", "geometry": {"type": "Point", "coordinates": [21.78333, 61.48333]}, "properties": {"subdiv": null, "city_name": "Pori", "player_name": "Erik Haula", "country_iso2": "FI", "current_team": "Vegas Golden Knights", "hockey_reference_link": "https://www.hockey-reference.com/players/h/haulaer01.html"}}, {"id": 247, "type": "Feature", "geometry": {"type": "Point", "coordinates": [14.9, 57.36667]}, "properties": {"subdiv": null, "city_name": "Landsbro", "player_name": "Erik Karlsson", "country_iso2": "SE", "current_team": "Ottawa Senators", "hockey_reference_link": "https://www.hockey-reference.com/players/k/karlser01.html"}}, {"id": 248, "type": "Feature", "geometry": {"type": "Point", "coordinates": [25.04099, 60.29414]}, "properties": {"subdiv": null, "city_name": "Vantaa", "player_name": "Esa Lindell", "country_iso2": "FI", "current_team": "Dallas Stars", "hockey_reference_link": "https://www.hockey-reference.com/players/l/lindees01.html"}}, {"id": 98, "type": "Feature", "geometry": {"type": "Point", "coordinates": [-76.68272, 45.98341]}, "properties": {"subdiv": "SK", "city_name": "Dépôt-Davidson", "player_name": "Brayden McNabb", "country_iso2": "CA", "current_team": "Vegas Golden Knights", "hockey_reference_link": "https://www.hockey-reference.com/players/m/mcnabbr01.html"}}, {"id": 252, "type": "Feature", "geometry": {"type": "Point", "coordinates": [61.42915, 55.15402]}, "properties": {"subdiv": null, "city_name": "Chelyabinsk", "player_name": "Evgeny Kuznetsov", "country_iso2": "RU", "current_team": "Washington Capitals", "hockey_reference_link": "https://www.hockey-reference.com/players/k/kuzneev01.html"}}, {"id": 253, "type": "Feature", "geometry": {"type": "Point", "coordinates": [14.42076, 50.08804]}, "properties": {"subdiv": null, "city_name": "Prague", "player_name": "Filip Chlapik", "country_iso2": "CZ", "current_team": "Ottawa Senators", "hockey_reference_link": "https://www.hockey-reference.com/players/c/chlapfi01.html"}}, {"id": 317, "type": "Feature", "geometry": {"type": "Point", "coordinates": [-80.37761, 43.70604]}, "properties": {"subdiv": "ON", "city_name": "Fergus", "player_name": "Jamie McGinn", "country_iso2": "CA", "current_team": "Florida Panthers", "hockey_reference_link": "https://www.hockey-reference.com/players/m/mcginja01.html"}}, {"id": 318, "type": "Feature", "geometry": {"type": "Point", "coordinates": [-79.4163, 43.70011]}, "properties": {"subdiv": "ON", "city_name": "Toronto", "player_name": "Jamie Oleksiak", "country_iso2": "CA", "current_team": "Dallas Stars", "hockey_reference_link": "https://www.hockey-reference.com/players/o/oleksja01.html"}}, {"id": 322, "type": "Feature", "geometry": {"type": "Point", "coordinates": [-80.84313, 35.22709]}, "properties": {"subdiv": "NC", "city_name": "Charlotte", "player_name": "Jared Boll", "country_iso2": "US", "current_team": "Anaheim Ducks", "hockey_reference_link": "https://www.hockey-reference.com/players/b/bollja01.html"}}, {"id": 259, "type": "Feature", "geometry": {"type": "Point", "coordinates": [8.97378, 56.13932]}, "properties": {"subdiv": null, "city_name": "Herning", "player_name": "Frans Nielsen", "country_iso2": "DK", "current_team": "Detroit Red Wings", "hockey_reference_link": "https://www.hockey-reference.com/players/n/nielsfr01.html"}}, {"id": 323, "type": "Feature", "geometry": {"type": "Point", "coordinates": [-80.94972, 43.36679]}, "properties": {"subdiv": "ON", "city_name": "Stratford", "player_name": "Jared McCann", "country_iso2": "CA", "current_team": "Florida Panthers", "hockey_reference_link": "https://www.hockey-reference.com/players/m/mccanja01.html"}}, {"id": 262, "type": "Feature", "geometry": {"type": "Point", "coordinates": [18.0649, 59.33258]}, "properties": {"subdiv": null, "city_name": "Stockholm", "player_name": "Fredrik Claesson", "country_iso2": "SE", "current_team": "Ottawa Senators", "hockey_reference_link": "https://www.hockey-reference.com/players/c/claesfr01.html"}}, {"id": 324, "type": "Feature", "geometry": {"type": "Point", "coordinates": [-113.46871, 53.55014]}, "properties": {"subdiv": "AB", "city_name": "Edmonton", "player_name": "Jared Spurgeon", "country_iso2": "CA", "current_team": "Minnesota Wild", "hockey_reference_link": "https://www.hockey-reference.com/players/s/spurgja01.html"}}, {"id": 326, "type": "Feature", "geometry": {"type": "Point", "coordinates": [-113.46871, 53.55014]}, "properties": {"subdiv": "AB", "city_name": "Edmonton", "player_name": "Jason Chimera", "country_iso2": "CA", "current_team": "New York Islanders", "hockey_reference_link": "https://www.hockey-reference.com/players/c/chimeja01.html"}}, {"id": 267, "type": "Feature", "geometry": {"type": "Point", "coordinates": [18.0649, 59.33258]}, "properties": {"subdiv": null, "city_name": "Stockholm", "player_name": "Gabriel Landeskog", "country_iso2": "SE", "current_team": "Colorado Avalanche", "hockey_reference_link": "https://www.hockey-reference.com/players/l/landega01.html"}}, {"id": 327, "type": "Feature", "geometry": {"type": "Point", "coordinates": [-73.75335, 45.4473]}, "properties": {"subdiv": "QC", "city_name": "Dorval", "player_name": "Jason Demers", "country_iso2": "CA", "current_team": "Arizona Coyotes", "hockey_reference_link": "https://www.hockey-reference.com/players/d/demerja01.html"}}, {"id": 328, "type": "Feature", "geometry": {"type": "Point", "coordinates": [-58.01511, 48.95001]}, "properties": {"subdiv": "ON", "city_name": "Georgetown", "player_name": "Jason Dickinson", "country_iso2": "CA", "current_team": "Dallas Stars", "hockey_reference_link": "https://www.hockey-reference.com/players/d/dickija01.html"}}, {"id": 329, "type": "Feature", "geometry": {"type": "Point", "coordinates": [-122.8026, 49.01636]}, "properties": {"subdiv": "BC", "city_name": "White Rock", "player_name": "Jason Garrison", "country_iso2": "CA", "current_team": "Vegas Golden Knights", "hockey_reference_link": "https://www.hockey-reference.com/players/g/garrija01.html"}}, {"id": 330, "type": "Feature", "geometry": {"type": "Point", "coordinates": [-73.45008, 45.74222]}, "properties": {"subdiv": "QC", "city_name": "Repentigny", "player_name": "Jason Pominville", "country_iso2": "CA", "current_team": "Buffalo Sabres", "hockey_reference_link": "https://www.hockey-reference.com/players/p/pominja01.html"}}, {"id": 331, "type": "Feature", "geometry": {"type": "Point", "coordinates": [-79.4163, 43.70011]}, "properties": {"subdiv": "ON", "city_name": "Toronto", "player_name": "Jason Spezza", "country_iso2": "CA", "current_team": "Dallas Stars", "hockey_reference_link": "https://www.hockey-reference.com/players/s/spezzja01.html"}}, {"id": 274, "type": "Feature", "geometry": {"type": "Point", "coordinates": [12.85676, 56.67446]}, "properties": {"subdiv": null, "city_name": "Halmstad", "player_name": "Gustav Nyquist", "country_iso2": "SE", "current_team": "Detroit Red Wings", "hockey_reference_link": "https://www.hockey-reference.com/players/n/nyquigu01.html"}}, {"id": 277, "type": "Feature", "geometry": {"type": "Point", "coordinates": [12.69437, 56.04673]}, "properties": {"subdiv": null, "city_name": "Helsingborg", "player_name": "Hampus Lindholm", "country_iso2": "SE", "current_team": "Anaheim Ducks", "hockey_reference_link": "https://www.hockey-reference.com/players/l/lindhha01.html"}}, {"id": 332, "type": "Feature", "geometry": {"type": "Point", "coordinates": [-117.92895, 33.61891]}, "properties": {"subdiv": "CA", "city_name": "Newport Beach", "player_name": "Jason Zucker", "country_iso2": "US", "current_team": "Minnesota Wild", "hockey_reference_link": "https://www.hockey-reference.com/players/z/zuckeja01.html"}}, {"id": 333, "type": "Feature", "geometry": {"type": "Point", "coordinates": [-114.08529, 51.05011]}, "properties": {"subdiv": "AB", "city_name": "Calgary", "player_name": "Jay Beagle", "country_iso2": "CA", "current_team": "Washington Capitals", "hockey_reference_link": "https://www.hockey-reference.com/players/b/beaglja01.html"}}, {"id": 225, "type": "Feature", "geometry": {"type": "Point", "coordinates": [39.57076, 52.60311]}, "properties": {"subdiv": null, "city_name": "Lipetsk", "player_name": "Dmitry Kulikov", "country_iso2": "RU", "current_team": "Winnipeg Jets", "hockey_reference_link": "https://www.hockey-reference.com/players/k/kulikdm01.html"}}, {"id": 284, "type": "Feature", "geometry": {"type": "Point", "coordinates": [26.22505, 60.45659]}, "properties": {"subdiv": null, "city_name": "Loviisa", "player_name": "Iiro Pakarinen", "country_iso2": "FI", "current_team": "Edmonton Oilers", "hockey_reference_link": "https://www.hockey-reference.com/players/p/pakarii01.html"}}, {"id": 285, "type": "Feature", "geometry": {"type": "Point", "coordinates": [37.61556, 55.75222]}, "properties": {"subdiv": null, "city_name": "Moscow", "player_name": "Ivan Barbashev", "country_iso2": "RU", "current_team": "St. Louis Blues", "hockey_reference_link": "https://www.hockey-reference.com/players/b/barbaiv01.html"}}, {"id": 286, "type": "Feature", "geometry": {"type": "Point", "coordinates": [39.87368, 57.62987]}, "properties": {"subdiv": null, "city_name": "Yaroslavl", "player_name": "Ivan Provorov", "country_iso2": "RU", "current_team": "Philadelphia Flyers", "hockey_reference_link": "https://www.hockey-reference.com/players/p/provoiv01.html"}}, {"id": 335, "type": "Feature", "geometry": {"type": "Point", "coordinates": [-80.23184, 26.13421]}, "properties": {"subdiv": "FL", "city_name": "Plantation", "player_name": "Jaycob Megna", "country_iso2": "US", "current_team": "Anaheim Ducks", "hockey_reference_link": "https://www.hockey-reference.com/players/m/megnaja02.html"}}, {"id": 336, "type": "Feature", "geometry": {"type": "Point", "coordinates": [-80.14338, 26.12231]}, "properties": {"subdiv": "FL", "city_name": "Fort Lauderdale", "player_name": "Jayson Megna", "country_iso2": "US", "current_team": "Vancouver Canucks", "hockey_reference_link": "https://www.hockey-reference.com/players/m/megnaja01.html"}}, {"id": 337, "type": "Feature", "geometry": {"type": "Point", "coordinates": [-75.69812, 45.41117]}, "properties": {"subdiv": "ON", "city_name": "Ottawa", "player_name": "Jean-Gabriel Pageau", "country_iso2": "CA", "current_team": "Ottawa Senators", "hockey_reference_link": "https://www.hockey-reference.com/players/p/pageaje01.html"}}, {"id": 338, "type": "Feature", "geometry": {"type": "Point", "coordinates": [-81.23304, 42.98339]}, "properties": {"subdiv": "ON", "city_name": "London", "player_name": "Jeff Carter", "country_iso2": "CA", "current_team": "Los Angeles Kings", "hockey_reference_link": "https://www.hockey-reference.com/players/c/carteje01.html"}}, {"id": 339, "type": "Feature", "geometry": {"type": "Point", "coordinates": [-83.74088, 42.27756]}, "properties": {"subdiv": "MI", "city_name": "Ann Arbor", "player_name": "Jeff Petry", "country_iso2": "US", "current_team": "Montreal Canadiens", "hockey_reference_link": "https://www.hockey-reference.com/players/p/petryje01.html"}}, {"id": 117, "type": "Feature", "geometry": {"type": "Point", "coordinates": [-71.00227, 42.25288]}, "properties": {"subdiv": "MA", "city_name": "Quincy", "player_name": "Brian Gibbons", "country_iso2": "US", "current_team": "New Jersey Devils", "hockey_reference_link": "https://www.hockey-reference.com/players/g/gibbobr02.html"}}, {"id": 121, "type": "Feature", "geometry": {"type": "Point", "coordinates": [-95.34274, 48.93638]}, "properties": {"subdiv": "MN", "city_name": "Warroad International-Swede Carlson Field", "player_name": "Brock Nelson", "country_iso2": "US", "current_team": "New York Islanders", "hockey_reference_link": "https://www.hockey-reference.com/players/n/nelsobr01.html"}}, {"id": 132, "type": "Feature", "geometry": {"type": "Point", "coordinates": [-76.02063, 45.31827]}, "properties": {"subdiv": "ON", "city_name": "Carp Airport", "player_name": "Calvin de Haan", "country_iso2": "CA", "current_team": "New York Islanders", "hockey_reference_link": "https://www.hockey-reference.com/players/d/dehaaca01.html"}}, {"id": 138, "type": "Feature", "geometry": {"type": "Point", "coordinates": [-118.80271, 55.16667]}, "properties": {"subdiv": "AB", "city_name": "Grande Prairie", "player_name": "Carter Rowney", "country_iso2": "CA", "current_team": "Pittsburgh Penguins", "hockey_reference_link": "https://www.hockey-reference.com/players/r/rowneca01.html"}}, {"id": 299, "type": "Feature", "geometry": {"type": "Point", "coordinates": [18.0649, 59.33258]}, "properties": {"subdiv": null, "city_name": "Stockholm", "player_name": "Jacob Josefson", "country_iso2": "SE", "current_team": "Buffalo Sabres", "hockey_reference_link": "https://www.hockey-reference.com/players/j/josefja01.html"}}, {"id": 104, "type": "Feature", "geometry": {"type": "Point", "coordinates": [-97.14704, 49.8844]}, "properties": {"subdiv": "MB", "city_name": "Winnipeg", "player_name": "Brendan Leipsic", "country_iso2": "CA", "current_team": "Vegas Golden Knights", "hockey_reference_link": "https://www.hockey-reference.com/players/l/leipsbr01.html"}}, {"id": 105, "type": "Feature", "geometry": {"type": "Point", "coordinates": [-104.9847, 39.73915]}, "properties": {"subdiv": "CO", "city_name": "Denver", "player_name": "Brendan Lemieux", "country_iso2": "US", "current_team": "Winnipeg Jets", "hockey_reference_link": "https://www.hockey-reference.com/players/l/lemiebr01.html"}}, {"id": 106, "type": "Feature", "geometry": {"type": "Point", "coordinates": [-0.57427, 51.23536]}, "properties": {"subdiv": null, "city_name": "Guildford", "player_name": "Brendan Perlini", "country_iso2": "GB", "current_team": "Arizona Coyotes", "hockey_reference_link": "https://www.hockey-reference.com/players/p/perlibr01.html"}}, {"id": 301, "type": "Feature", "geometry": {"type": "Point", "coordinates": [12.58518, 59.65528]}, "properties": {"subdiv": null, "city_name": "Arvika", "player_name": "Jacob de La Rose", "country_iso2": "SE", "current_team": "Montreal Canadiens", "hockey_reference_link": "https://www.hockey-reference.com/players/d/delarja01.html"}}, {"id": 300, "type": "Feature", "geometry": {"type": "Point", "coordinates": [-83.13382, 42.68059]}, "properties": {"subdiv": "MI", "city_name": "Rochester", "player_name": "Jacob Trouba", "country_iso2": "US", "current_team": "Winnipeg Jets", "hockey_reference_link": "https://www.hockey-reference.com/players/t/troubja01.html"}}, {"id": 140, "type": "Feature", "geometry": {"type": "Point", "coordinates": [-64.48194, 48.83341]}, "properties": {"subdiv": "QC", "city_name": "Gaspé", "player_name": "Cedric Paquette", "country_iso2": "CA", "current_team": "Tampa Bay Lightning", "hockey_reference_link": "https://www.hockey-reference.com/players/p/paquece01.html"}}, {"id": 156, "type": "Feature", "geometry": {"type": "Point", "coordinates": [-90.19789, 38.62727]}, "properties": {"subdiv": "MO", "city_name": "St Louis", "player_name": "Chris Wideman", "country_iso2": "US", "current_team": "Ottawa Senators", "hockey_reference_link": "https://www.hockey-reference.com/players/w/widemch01.html"}}, {"id": 158, "type": "Feature", "geometry": {"type": "Point", "coordinates": [-87.817, 41.6967]}, "properties": {"subdiv": "IL", "city_name": "Palos Hills", "player_name": "Christian Dvorak", "country_iso2": "US", "current_team": "Arizona Coyotes", "hockey_reference_link": "https://www.hockey-reference.com/players/d/dvorach01.html"}}, {"id": 283, "type": "Feature", "geometry": {"type": "Point", "coordinates": [-117.9145, 33.83529]}, "properties": {"subdiv": "CA", "city_name": "Anaheim", "player_name": "Ian McCoshen", "country_iso2": "US", "current_team": "Florida Panthers", "hockey_reference_link": "https://www.hockey-reference.com/players/m/mccosia01.html"}}, {"id": 369, "type": "Feature", "geometry": {"type": "Point", "coordinates": [-97.14704, 49.8844]}, "properties": {"subdiv": "MB", "city_name": "Winnipeg", "player_name": "Jonathan Toews", "country_iso2": "CA", "current_team": "Chicago Blackhawks", "hockey_reference_link": "https://www.hockey-reference.com/players/t/toewsjo01.html"}}, {"id": 313, "type": "Feature", "geometry": {"type": "Point", "coordinates": [14.42076, 50.08804]}, "properties": {"subdiv": null, "city_name": "Prague", "player_name": "Jakub Vrana", "country_iso2": "CZ", "current_team": "Washington Capitals", "hockey_reference_link": "https://www.hockey-reference.com/players/v/vranaja01.html"}}, {"id": 370, "type": "Feature", "geometry": {"type": "Point", "coordinates": [-97.51643, 35.46756]}, "properties": {"subdiv": "OK", "city_name": "Oklahoma City", "player_name": "Jonathon Merrill", "country_iso2": "US", "current_team": "Vegas Golden Knights", "hockey_reference_link": "https://www.hockey-reference.com/players/m/merrijo01.html"}}, {"id": 371, "type": "Feature", "geometry": {"type": "Point", "coordinates": [-93.24995, 45.25024]}, "properties": {"subdiv": "MN", "city_name": "Ham Lake", "player_name": "Jonny Brodzinski", "country_iso2": "US", "current_team": "Los Angeles Kings", "hockey_reference_link": "https://www.hockey-reference.com/players/b/brodzjo01.html"}}, {"id": 373, "type": "Feature", "geometry": {"type": "Point", "coordinates": [-104.6178, 50.45008]}, "properties": {"subdiv": "SK", "city_name": "Regina", "player_name": "Jordan Eberle", "country_iso2": "CA", "current_team": "New York Islanders", "hockey_reference_link": "https://www.hockey-reference.com/players/e/eberljo01.html"}}, {"id": 374, "type": "Feature", "geometry": {"type": "Point", "coordinates": [-99.95306, 49.84692]}, "properties": {"subdiv": "MB", "city_name": "Brandon", "player_name": "Jordan Martinook", "country_iso2": "CA", "current_team": "Arizona Coyotes", "hockey_reference_link": "https://www.hockey-reference.com/players/m/martijo01.html"}}, {"id": 376, "type": "Feature", "geometry": {"type": "Point", "coordinates": [-83.27326, 42.33698]}, "properties": {"subdiv": "MI", "city_name": "Dearborn Heights", "player_name": "Jordan Oesterle", "country_iso2": "US", "current_team": "Chicago Blackhawks", "hockey_reference_link": "https://www.hockey-reference.com/players/o/oestejo01.html"}}, {"id": 320, "type": "Feature", "geometry": {"type": "Point", "coordinates": [25.41121, 64.93456]}, "properties": {"subdiv": null, "city_name": "Oulunsalo", "player_name": "Janne Kuokkanen", "country_iso2": "FI", "current_team": "Carolina Hurricanes", "hockey_reference_link": "https://www.hockey-reference.com/players/k/kuokkja01.html"}}, {"id": 377, "type": "Feature", "geometry": {"type": "Point", "coordinates": [-93.24272, 44.64969]}, "properties": {"subdiv": "MN", "city_name": "Lakeville", "player_name": "Jordan Schroeder", "country_iso2": "US", "current_team": "Columbus Blue Jackets", "hockey_reference_link": "https://www.hockey-reference.com/players/s/schrojo01.html"}}, {"id": 378, "type": "Feature", "geometry": {"type": "Point", "coordinates": [-89.25018, 48.38202]}, "properties": {"subdiv": "ON", "city_name": "Thunder Bay", "player_name": "Jordan Staal", "country_iso2": "CA", "current_team": "Carolina Hurricanes", "hockey_reference_link": "https://www.hockey-reference.com/players/s/staaljo01.html"}}, {"id": 379, "type": "Feature", "geometry": {"type": "Point", "coordinates": [-79.83713, 43.38621]}, "properties": {"subdiv": "ON", "city_name": "Burlington", "player_name": "Jordan Szwarz", "country_iso2": "CA", "current_team": "Boston Bruins", "hockey_reference_link": "https://www.hockey-reference.com/players/s/szwarjo01.html"}}, {"id": 383, "type": "Feature", "geometry": {"type": "Point", "coordinates": [-113.46871, 53.55014]}, "properties": {"subdiv": "AB", "city_name": "Edmonton", "player_name": "Joseph Morrow", "country_iso2": "CA", "current_team": "Montreal Canadiens", "hockey_reference_link": "https://www.hockey-reference.com/players/m/morrojo02.html"}}, {"id": 384, "type": "Feature", "geometry": {"type": "Point", "coordinates": [-79.83713, 43.38621]}, "properties": {"subdiv": "ON", "city_name": "Burlington", "player_name": "Josh Anderson", "country_iso2": "CA", "current_team": "Columbus Blue Jackets", "hockey_reference_link": "https://www.hockey-reference.com/players/a/anderjo05.html"}}, {"id": 334, "type": "Feature", "geometry": {"type": "Point", "coordinates": [-113.46871, 53.55014]}, "properties": {"subdiv": "AB", "city_name": "Edmonton", "player_name": "Jay Bouwmeester", "country_iso2": "CA", "current_team": "St. Louis Blues", "hockey_reference_link": "https://www.hockey-reference.com/players/b/bouwmja01.html"}}, {"id": 173, "type": "Feature", "geometry": {"type": "Point", "coordinates": [-123.11934, 49.24966]}, "properties": {"subdiv": "BC", "city_name": "Vancouver", "player_name": "Colton Sissons", "country_iso2": "CA", "current_team": "Nashville Predators", "hockey_reference_link": "https://www.hockey-reference.com/players/s/sissoco01.html"}}, {"id": 183, "type": "Feature", "geometry": {"type": "Point", "coordinates": [-119.229, 50.6828]}, "properties": {"subdiv": "BC", "city_name": "Salmon Arm Airport", "player_name": "Curtis Lazar", "country_iso2": "CA", "current_team": "Calgary Flames", "hockey_reference_link": "https://www.hockey-reference.com/players/l/lazarcu01.html"}}, {"id": 189, "type": "Feature", "geometry": {"type": "Point", "coordinates": [-59.55688, 53.72779]}, "properties": {"subdiv": "SK", "city_name": "Lake Melville", "player_name": "Damon Severson", "country_iso2": "CA", "current_team": "New Jersey Devils", "hockey_reference_link": "https://www.hockey-reference.com/players/s/severda01.html"}}, {"id": 191, "type": "Feature", "geometry": {"type": "Point", "coordinates": [-127.18278, 54.82472]}, "properties": {"subdiv": "BC", "city_name": "Smithers Airport", "player_name": "Dan Hamhuis", "country_iso2": "CA", "current_team": "Dallas Stars", "hockey_reference_link": "https://www.hockey-reference.com/players/h/hamhuda01.html"}}, {"id": 198, "type": "Feature", "geometry": {"type": "Point", "coordinates": [-122.58589, 49.08297]}, "properties": {"subdiv": "BC", "city_name": "Langley, British Columbia", "player_name": "Danton Heinen", "country_iso2": "CA", "current_team": "Boston Bruins", "hockey_reference_link": "https://www.hockey-reference.com/players/h/heineda01.html"}}, {"id": 207, "type": "Feature", "geometry": {"type": "Point", "coordinates": [-72.95699, 45.63076]}, "properties": {"subdiv": "QC", "city_name": "Saint-Hyacinthe", "player_name": "David Savard", "country_iso2": "CA", "current_team": "Columbus Blue Jackets", "hockey_reference_link": "https://www.hockey-reference.com/players/s/savarda01.html"}}, {"id": 212, "type": "Feature", "geometry": {"type": "Point", "coordinates": [-109.17535, 51.5183]}, "properties": {"subdiv": "SK", "city_name": "Kindersley Regional Airport", "player_name": "Derek Dorsett", "country_iso2": "CA", "current_team": "Vancouver Canucks", "hockey_reference_link": "https://www.hockey-reference.com/players/d/dorsede01.html"}}, {"id": 398, "type": "Feature", "geometry": {"type": "Point", "coordinates": [-78.87837, 42.88645]}, "properties": {"subdiv": "NY", "city_name": "Buffalo", "player_name": "Justin Bailey", "country_iso2": "US", "current_team": "Buffalo Sabres", "hockey_reference_link": "https://www.hockey-reference.com/players/b/baileju01.html"}}, {"id": 399, "type": "Feature", "geometry": {"type": "Point", "coordinates": [-93.26384, 44.97997]}, "properties": {"subdiv": "MN", "city_name": "Minneapolis", "player_name": "Justin Braun", "country_iso2": "US", "current_team": "San Jose Sharks", "hockey_reference_link": "https://www.hockey-reference.com/players/b/braunju01.html"}}, {"id": 400, "type": "Feature", "geometry": {"type": "Point", "coordinates": [-98.66, 49.04751]}, "properties": {"subdiv": "MB", "city_name": "Snowflake", "player_name": "Justin Falk", "country_iso2": "CA", "current_team": "Buffalo Sabres", "hockey_reference_link": "https://www.hockey-reference.com/players/f/falkju01.html"}}, {"id": 402, "type": "Feature", "geometry": {"type": "Point", "coordinates": [-93.24272, 44.64969]}, "properties": {"subdiv": "MN", "city_name": "Lakeville", "player_name": "Justin Kloos", "country_iso2": "US", "current_team": "Minnesota Wild", "hockey_reference_link": "https://www.hockey-reference.com/players/k/kloosju01.html"}}, {"id": 341, "type": "Feature", "geometry": {"type": "Point", "coordinates": [18.0649, 59.33258]}, "properties": {"subdiv": null, "city_name": "Stockholm", "player_name": "Jesper Bratt", "country_iso2": "SE", "current_team": "New Jersey Devils", "hockey_reference_link": "https://www.hockey-reference.com/players/b/brattje01.html"}}, {"id": 403, "type": "Feature", "geometry": {"type": "Point", "coordinates": [-119.48568, 49.88307]}, "properties": {"subdiv": "BC", "city_name": "Kelowna", "player_name": "Justin Schultz", "country_iso2": "CA", "current_team": "Pittsburgh Penguins", "hockey_reference_link": "https://www.hockey-reference.com/players/s/schulju01.html"}}, {"id": 346, "type": "Feature", "geometry": {"type": "Point", "coordinates": [18.0649, 59.33258]}, "properties": {"subdiv": null, "city_name": "Stockholm", "player_name": "Joakim Nordstrom", "country_iso2": "SE", "current_team": "Carolina Hurricanes", "hockey_reference_link": "https://www.hockey-reference.com/players/n/nordsjo02.html"}}, {"id": 404, "type": "Feature", "geometry": {"type": "Point", "coordinates": [-78.16515, 43.95977]}, "properties": {"subdiv": "ON", "city_name": "Cobourg", "player_name": "Justin Williams", "country_iso2": "CA", "current_team": "Carolina Hurricanes", "hockey_reference_link": "https://www.hockey-reference.com/players/w/williju01.html"}}, {"id": 405, "type": "Feature", "geometry": {"type": "Point", "coordinates": [-117.42908, 47.65966]}, "properties": {"subdiv": "WA", "city_name": "Spokane", "player_name": "Kailer Yamamoto", "country_iso2": "US", "current_team": "Edmonton Oilers", "hockey_reference_link": "https://www.hockey-reference.com/players/y/yamamka01.html"}}, {"id": 407, "type": "Feature", "geometry": {"type": "Point", "coordinates": [-122.95263, 49.26636]}, "properties": {"subdiv": "BC", "city_name": "Burnaby", "player_name": "Karl Alzner", "country_iso2": "CA", "current_team": "Montreal Canadiens", "hockey_reference_link": "https://www.hockey-reference.com/players/a/alzneka01.html"}}, {"id": 409, "type": "Feature", "geometry": {"type": "Point", "coordinates": [-71.05977, 42.35843]}, "properties": {"subdiv": "MA", "city_name": "Boston", "player_name": "Keith Yandle", "country_iso2": "US", "current_team": "Florida Panthers", "hockey_reference_link": "https://www.hockey-reference.com/players/y/yandlke01.html"}}, {"id": 352, "type": "Feature", "geometry": {"type": "Point", "coordinates": [13.50357, 59.3793]}, "properties": {"subdiv": null, "city_name": "Karlstad", "player_name": "Joel Eriksson Ek", "country_iso2": "SE", "current_team": "Minnesota Wild", "hockey_reference_link": "https://www.hockey-reference.com/players/e/eriksjo02.html"}}, {"id": 410, "type": "Feature", "geometry": {"type": "Point", "coordinates": [-74.48154, 40.79677]}, "properties": {"subdiv": "NJ", "city_name": "Morristown", "player_name": "Kenny Agostino", "country_iso2": "US", "current_team": "Boston Bruins", "hockey_reference_link": "https://www.hockey-reference.com/players/a/agostke01.html"}}, {"id": 411, "type": "Feature", "geometry": {"type": "Point", "coordinates": [-118.24368, 34.05223]}, "properties": {"subdiv": "CA", "city_name": "Los Angeles", "player_name": "Kevan Miller", "country_iso2": "US", "current_team": "Boston Bruins", "hockey_reference_link": "https://www.hockey-reference.com/players/m/milleke03.html"}}, {"id": 412, "type": "Feature", "geometry": {"type": "Point", "coordinates": [-79.56631, 43.20011]}, "properties": {"subdiv": "ON", "city_name": "Grimsby", "player_name": "Kevin Bieksa", "country_iso2": "CA", "current_team": "Anaheim Ducks", "hockey_reference_link": "https://www.hockey-reference.com/players/b/biekske01.html"}}, {"id": 413, "type": "Feature", "geometry": {"type": "Point", "coordinates": [-113.46871, 53.55014]}, "properties": {"subdiv": "AB", "city_name": "Edmonton", "player_name": "Kevin Connauton", "country_iso2": "CA", "current_team": "Arizona Coyotes", "hockey_reference_link": "https://www.hockey-reference.com/players/c/connake01.html"}}, {"id": 358, "type": "Feature", "geometry": {"type": "Point", "coordinates": [11.96679, 57.70716]}, "properties": {"subdiv": null, "city_name": "Gothenburg", "player_name": "John Klingberg", "country_iso2": "SE", "current_team": "Dallas Stars", "hockey_reference_link": "https://www.hockey-reference.com/players/k/klingjo01.html"}}, {"id": 416, "type": "Feature", "geometry": {"type": "Point", "coordinates": [-73.94958, 40.6501]}, "properties": {"subdiv": "NY", "city_name": "Brooklyn", "player_name": "Kevin Labanc", "country_iso2": "US", "current_team": "San Jose Sharks", "hockey_reference_link": "https://www.hockey-reference.com/players/l/labanke01.html"}}, {"id": 417, "type": "Feature", "geometry": {"type": "Point", "coordinates": [-73.46223, 45.48649]}, "properties": {"subdiv": "QC", "city_name": "Greenfield Park", "player_name": "Kevin Roy", "country_iso2": "CA", "current_team": "Anaheim Ducks", "hockey_reference_link": "https://www.hockey-reference.com/players/r/royke01.html"}}, {"id": 363, "type": "Feature", "geometry": {"type": "Point", "coordinates": [18.0649, 59.33258]}, "properties": {"subdiv": null, "city_name": "Stockholm", "player_name": "Johnny Oduya", "country_iso2": "SE", "current_team": "Ottawa Senators", "hockey_reference_link": "https://www.hockey-reference.com/players/o/oduyajo01.html"}}, {"id": 365, "type": "Feature", "geometry": {"type": "Point", "coordinates": [13.50357, 59.3793]}, "properties": {"subdiv": null, "city_name": "Karlstad", "player_name": "Jonas Brodin", "country_iso2": "SE", "current_team": "Minnesota Wild", "hockey_reference_link": "https://www.hockey-reference.com/players/b/brodijo01.html"}}, {"id": 367, "type": "Feature", "geometry": {"type": "Point", "coordinates": [15.58661, 56.16156]}, "properties": {"subdiv": null, "city_name": "Karlskrona", "player_name": "Jonathan Ericsson", "country_iso2": "SE", "current_team": "Detroit Red Wings", "hockey_reference_link": "https://www.hockey-reference.com/players/e/ericsjo01.html"}}, {"id": 418, "type": "Feature", "geometry": {"type": "Point", "coordinates": [-73.78235, 40.91149]}, "properties": {"subdiv": "NY", "city_name": "New Rochelle", "player_name": "Kevin Shattenkirk", "country_iso2": "US", "current_team": "New York Rangers", "hockey_reference_link": "https://www.hockey-reference.com/players/s/shattke01.html"}}, {"id": 421, "type": "Feature", "geometry": {"type": "Point", "coordinates": [-73.58781, 45.50884]}, "properties": {"subdiv": "QC", "city_name": "Montreal", "player_name": "Kris Letang", "country_iso2": "CA", "current_team": "Pittsburgh Penguins", "hockey_reference_link": "https://www.hockey-reference.com/players/l/letankr01.html"}}, {"id": 422, "type": "Feature", "geometry": {"type": "Point", "coordinates": [-114.75205, 52.08341]}, "properties": {"subdiv": "AB", "city_name": "Caroline", "player_name": "Kris Russell", "country_iso2": "CA", "current_team": "Edmonton Oilers", "hockey_reference_link": "https://www.hockey-reference.com/players/r/russekr01.html"}}, {"id": 372, "type": "Feature", "geometry": {"type": "Point", "coordinates": [24.48333, 64.68333]}, "properties": {"subdiv": null, "city_name": "Raahe", "player_name": "Joonas Donskoi", "country_iso2": "FI", "current_team": "San Jose Sharks", "hockey_reference_link": "https://www.hockey-reference.com/players/d/donskjo01.html"}}, {"id": 423, "type": "Feature", "geometry": {"type": "Point", "coordinates": [-112.81856, 49.69999]}, "properties": {"subdiv": "AB", "city_name": "Lethbridge", "player_name": "Kris Versteeg", "country_iso2": "CA", "current_team": "Calgary Flames", "hockey_reference_link": "https://www.hockey-reference.com/players/v/verstkr01.html"}}, {"id": 219, "type": "Feature", "geometry": {"type": "Point", "coordinates": [-102.96005, 49.20801]}, "properties": {"subdiv": "SK", "city_name": "Estevan Regional Aerodrome", "player_name": "Derrick Pouliot", "country_iso2": "CA", "current_team": "Vancouver Canucks", "hockey_reference_link": "https://www.hockey-reference.com/players/p/poulide01.html"}}, {"id": 233, "type": "Feature", "geometry": {"type": "Point", "coordinates": [-115.78194, 49.61222]}, "properties": {"subdiv": "BC", "city_name": "Cranbrook/Canadian Rockies International Airport", "player_name": "Dryden Hunt", "country_iso2": "CA", "current_team": "Florida Panthers", "hockey_reference_link": "https://www.hockey-reference.com/players/h/huntdr01.html"}}, {"id": 236, "type": "Feature", "geometry": {"type": "Point", "coordinates": [-95.34274, 48.93638]}, "properties": {"subdiv": "MN", "city_name": "Warroad International-Swede Carlson Field", "player_name": "Dustin Byfuglien", "country_iso2": "US", "current_team": "Winnipeg Jets", "hockey_reference_link": "https://www.hockey-reference.com/players/b/byfugdu01.html"}}, {"id": 246, "type": "Feature", "geometry": {"type": "Point", "coordinates": [-93.17848, 44.95751]}, "properties": {"subdiv": "MN", "city_name": "Minneapolis-St. Paul-Bloomington", "player_name": "Erik Johnson", "country_iso2": "US", "current_team": "Colorado Avalanche", "hockey_reference_link": "https://www.hockey-reference.com/players/j/johnser01.html"}}, {"id": 261, "type": "Feature", "geometry": {"type": "Point", "coordinates": [-72.7414, 45.2908]}, "properties": {"subdiv": "QC", "city_name": "Roland-Désourdy Airport", "player_name": "Frederick Gaudreau", "country_iso2": "CA", "current_team": "Nashville Predators", "hockey_reference_link": "https://www.hockey-reference.com/players/g/gaudrfr01.html"}}, {"id": 382, "type": "Feature", "geometry": {"type": "Point", "coordinates": [24.93545, 60.16952]}, "properties": {"subdiv": null, "city_name": "Helsinki", "player_name": "Jori Lehtera", "country_iso2": "FI", "current_team": "Philadelphia Flyers", "hockey_reference_link": "https://www.hockey-reference.com/players/l/lehtejo01.html"}}, {"id": 204, "type": "Feature", "geometry": {"type": "Point", "coordinates": [17.29889, 49.73044]}, "properties": {"subdiv": null, "city_name": "Sternberk", "player_name": "David Krejci", "country_iso2": "CZ", "current_team": "Boston Bruins", "hockey_reference_link": "https://www.hockey-reference.com/players/k/krejcda01.html"}}, {"id": 266, "type": "Feature", "geometry": null, "properties": {"subdiv": "QC", "city_name": null, "player_name": "Gabriel Dumont", "country_iso2": "CA", "current_team": "Ottawa Senators", "hockey_reference_link": "https://www.hockey-reference.com/players/d/dumonga01.html"}}, {"id": 455, "type": "Feature", "geometry": {"type": "Point", "coordinates": [-75.69812, 45.41117]}, "properties": {"subdiv": "ON", "city_name": "Ottawa", "player_name": "Marc Methot", "country_iso2": "CA", "current_team": "Dallas Stars", "hockey_reference_link": "https://www.hockey-reference.com/players/m/methoma01.html"}}, {"id": 456, "type": "Feature", "geometry": {"type": "Point", "coordinates": [-89.25018, 48.38202]}, "properties": {"subdiv": "ON", "city_name": "Thunder Bay", "player_name": "Marc Staal", "country_iso2": "CA", "current_team": "New York Rangers", "hockey_reference_link": "https://www.hockey-reference.com/players/s/staalma01.html"}}, {"id": 457, "type": "Feature", "geometry": {"type": "Point", "coordinates": [-73.58781, 45.50884]}, "properties": {"subdiv": "QC", "city_name": "Montreal", "player_name": "Marc-Edouard Vlasic", "country_iso2": "CA", "current_team": "San Jose Sharks", "hockey_reference_link": "https://www.hockey-reference.com/players/v/vlasima01.html"}}, {"id": 458, "type": "Feature", "geometry": {"type": "Point", "coordinates": [-73.58781, 45.50884]}, "properties": {"subdiv": "QC", "city_name": "Montreal", "player_name": "Marco Scandella", "country_iso2": "CA", "current_team": "Buffalo Sabres", "hockey_reference_link": "https://www.hockey-reference.com/players/s/scandma01.html"}}, {"id": 459, "type": "Feature", "geometry": {"type": "Point", "coordinates": [-78.87837, 42.88645]}, "properties": {"subdiv": "NY", "city_name": "Buffalo", "player_name": "Marcus Foligno", "country_iso2": "US", "current_team": "Minnesota Wild", "hockey_reference_link": "https://www.hockey-reference.com/players/f/foligma01.html"}}, {"id": 464, "type": "Feature", "geometry": {"type": "Point", "coordinates": [-94.57857, 39.09973]}, "properties": {"subdiv": "MO", "city_name": "Kansas City", "player_name": "Mark Alt", "country_iso2": "US", "current_team": "Philadelphia Flyers", "hockey_reference_link": "https://www.hockey-reference.com/players/a/altma01.html"}}, {"id": 465, "type": "Feature", "geometry": {"type": "Point", "coordinates": [-73.58781, 45.50884]}, "properties": {"subdiv": "QC", "city_name": "Montreal", "player_name": "Mark Barberio", "country_iso2": "CA", "current_team": "Colorado Avalanche", "hockey_reference_link": "https://www.hockey-reference.com/players/b/barbema01.html"}}, {"id": 466, "type": "Feature", "geometry": {"type": "Point", "coordinates": [-75.69812, 45.41117]}, "properties": {"subdiv": "ON", "city_name": "Ottawa", "player_name": "Mark Borowiecki", "country_iso2": "CA", "current_team": "Ottawa Senators", "hockey_reference_link": "https://www.hockey-reference.com/players/b/borowma01.html"}}, {"id": 467, "type": "Feature", "geometry": {"type": "Point", "coordinates": [-79.4163, 43.70011]}, "properties": {"subdiv": "ON", "city_name": "Toronto", "player_name": "Mark Giordano", "country_iso2": "CA", "current_team": "Calgary Flames", "hockey_reference_link": "https://www.hockey-reference.com/players/g/giordma01.html"}}, {"id": 468, "type": "Feature", "geometry": {"type": "Point", "coordinates": [-79.84963, 43.25011]}, "properties": {"subdiv": "ON", "city_name": "Hamilton", "player_name": "Mark Jankowski", "country_iso2": "CA", "current_team": "Calgary Flames", "hockey_reference_link": "https://www.hockey-reference.com/players/j/jankoma01.html"}}, {"id": 394, "type": "Feature", "geometry": {"type": "Point", "coordinates": [25.72088, 62.24147]}, "properties": {"subdiv": null, "city_name": "Jyvaskyla", "player_name": "Julius Honka", "country_iso2": "FI", "current_team": "Dallas Stars", "hockey_reference_link": "https://www.hockey-reference.com/players/h/honkaju01.html"}}, {"id": 395, "type": "Feature", "geometry": {"type": "Point", "coordinates": [23.95, 64.25]}, "properties": {"subdiv": null, "city_name": "Kalajoki", "player_name": "Jussi Jokinen", "country_iso2": "FI", "current_team": "Los Angeles Kings", "hockey_reference_link": "https://www.hockey-reference.com/players/j/jokinju01.html"}}, {"id": 304, "type": "Feature", "geometry": {"type": "Point", "coordinates": [-105.13833, 69.10805]}, "properties": {"subdiv": "ON", "city_name": "Cambridge Bay Airport", "player_name": "Jake Dotchin", "country_iso2": "CA", "current_team": "Tampa Bay Lightning", "hockey_reference_link": "https://www.hockey-reference.com/players/d/dotchja01.html"}}, {"id": 469, "type": "Feature", "geometry": {"type": "Point", "coordinates": [-110.9017, 53.90017]}, "properties": {"subdiv": "AB", "city_name": "Elk Point", "player_name": "Mark Letestu", "country_iso2": "CA", "current_team": "Edmonton Oilers", "hockey_reference_link": "https://www.hockey-reference.com/players/l/letesma01.html"}}, {"id": 440, "type": "Feature", "geometry": {"type": "Point", "coordinates": [-78.63861, 35.7721]}, "properties": {"subdiv": "NC", "city_name": "Raleigh", "player_name": "Logan Brown", "country_iso2": "US", "current_team": "Ottawa Senators", "hockey_reference_link": "https://www.hockey-reference.com/players/b/brownlo01.html"}}, {"id": 489, "type": "Feature", "geometry": {"type": "Point", "coordinates": [-92.53657, 47.52326]}, "properties": {"subdiv": "MN", "city_name": "Virginia", "player_name": "Matt Cullen", "country_iso2": "US", "current_team": "Minnesota Wild", "hockey_reference_link": "https://www.hockey-reference.com/players/c/cullema01.html"}}, {"id": 491, "type": "Feature", "geometry": {"type": "Point", "coordinates": [-93.23495, 45.1608]}, "properties": {"subdiv": "MN", "city_name": "Blaine", "player_name": "Matt Hendricks", "country_iso2": "US", "current_team": "Winnipeg Jets", "hockey_reference_link": "https://www.hockey-reference.com/players/h/hendrma01.html"}}, {"id": 492, "type": "Feature", "geometry": {"type": "Point", "coordinates": [-83.01304, 42.49044]}, "properties": {"subdiv": "MI", "city_name": "Warren", "player_name": "Matt Hunwick", "country_iso2": "US", "current_team": "Pittsburgh Penguins", "hockey_reference_link": "https://www.hockey-reference.com/players/h/hunwima01.html"}}, {"id": 493, "type": "Feature", "geometry": {"type": "Point", "coordinates": [-123.3693, 48.43294]}, "properties": {"subdiv": "BC", "city_name": "Victoria", "player_name": "Matt Irwin", "country_iso2": "CA", "current_team": "Nashville Predators", "hockey_reference_link": "https://www.hockey-reference.com/players/i/irwinma01.html"}}, {"id": 494, "type": "Feature", "geometry": {"type": "Point", "coordinates": [-83.01654, 42.30008]}, "properties": {"subdiv": "ON", "city_name": "Windsor", "player_name": "Matt Martin", "country_iso2": "CA", "current_team": "Toronto Maple Leafs", "hockey_reference_link": "https://www.hockey-reference.com/players/m/martima02.html"}}, {"id": 495, "type": "Feature", "geometry": {"type": "Point", "coordinates": [-79.4163, 43.76681]}, "properties": {"subdiv": "ON", "city_name": "North York", "player_name": "Matt Moulson", "country_iso2": "CA", "current_team": "Buffalo Sabres", "hockey_reference_link": "https://www.hockey-reference.com/players/m/moulsma01.html"}}, {"id": 406, "type": "Feature", "geometry": {"type": "Point", "coordinates": [24.72756, 60.21209]}, "properties": {"subdiv": null, "city_name": "Kauniainen", "player_name": "Kalle Kossila", "country_iso2": "FI", "current_team": "Anaheim Ducks", "hockey_reference_link": "https://www.hockey-reference.com/players/k/kossika01.html"}}, {"id": 496, "type": "Feature", "geometry": {"type": "Point", "coordinates": [-92.53657, 47.52326]}, "properties": {"subdiv": "MN", "city_name": "Virginia", "player_name": "Matt Niskanen", "country_iso2": "US", "current_team": "Washington Capitals", "hockey_reference_link": "https://www.hockey-reference.com/players/n/niskama01.html"}}, {"id": 408, "type": "Feature", "geometry": {"type": "Point", "coordinates": [27.67703, 62.89238]}, "properties": {"subdiv": null, "city_name": "Kuopio", "player_name": "Kasperi Kapanen", "country_iso2": "FI", "current_team": "Toronto Maple Leafs", "hockey_reference_link": "https://www.hockey-reference.com/players/k/kapanka01.html"}}, {"id": 497, "type": "Feature", "geometry": {"type": "Point", "coordinates": [-81.39976, 43.06679]}, "properties": {"subdiv": "ON", "city_name": "Ilderton", "player_name": "Matt Read", "country_iso2": "CA", "current_team": "Philadelphia Flyers", "hockey_reference_link": "https://www.hockey-reference.com/players/r/readma01.html"}}, {"id": 498, "type": "Feature", "geometry": {"type": "Point", "coordinates": [-79.6583, 43.5789]}, "properties": {"subdiv": "ON", "city_name": "Mississauga", "player_name": "Matt Stajan", "country_iso2": "CA", "current_team": "Calgary Flames", "hockey_reference_link": "https://www.hockey-reference.com/players/s/stajama01.html"}}, {"id": 499, "type": "Feature", "geometry": {"type": "Point", "coordinates": [-93.26384, 44.97997]}, "properties": {"subdiv": "MN", "city_name": "Minneapolis", "player_name": "Matt Tennyson", "country_iso2": "US", "current_team": "Buffalo Sabres", "hockey_reference_link": "https://www.hockey-reference.com/players/t/tennyma01.html"}}, {"id": 500, "type": "Feature", "geometry": {"type": "Point", "coordinates": [-71.062, 42.37787]}, "properties": {"subdiv": "MA", "city_name": "Charlestown", "player_name": "Matthew Grzelcyk", "country_iso2": "US", "current_team": "Boston Bruins", "hockey_reference_link": "https://www.hockey-reference.com/players/g/grzelma01.html"}}, {"id": 501, "type": "Feature", "geometry": {"type": "Point", "coordinates": [-118.18923, 33.76696]}, "properties": {"subdiv": "CA", "city_name": "Long Beach", "player_name": "Matthew Nieto", "country_iso2": "US", "current_team": "Colorado Avalanche", "hockey_reference_link": "https://www.hockey-reference.com/players/n/nietoma01.html"}}, {"id": 414, "type": "Feature", "geometry": {"type": "Point", "coordinates": [9.37477, 47.42391]}, "properties": {"subdiv": null, "city_name": "St. Gallen", "player_name": "Kevin Fiala", "country_iso2": "CH", "current_team": "Nashville Predators", "hockey_reference_link": "https://www.hockey-reference.com/players/f/fialake01.html"}}, {"id": 502, "type": "Feature", "geometry": {"type": "Point", "coordinates": [-111.89903, 33.50921]}, "properties": {"subdiv": "AZ", "city_name": "Scottsdale", "player_name": "Matthew Tkachuk", "country_iso2": "US", "current_team": "Calgary Flames", "hockey_reference_link": "https://www.hockey-reference.com/players/t/tkachma01.html"}}, {"id": 506, "type": "Feature", "geometry": {"type": "Point", "coordinates": [-88.06038, 44.44888]}, "properties": {"subdiv": "WI", "city_name": "De Pere", "player_name": "Max McCormick", "country_iso2": "US", "current_team": "Ottawa Senators", "hockey_reference_link": "https://www.hockey-reference.com/players/m/mccorma01.html"}}, {"id": 507, "type": "Feature", "geometry": {"type": "Point", "coordinates": [-73.49484, 41.14676]}, "properties": {"subdiv": "CT", "city_name": "New Canaan", "player_name": "Max Pacioretty", "country_iso2": "US", "current_team": "Montreal Canadiens", "hockey_reference_link": "https://www.hockey-reference.com/players/p/pacioma01.html"}}, {"id": 419, "type": "Feature", "geometry": {"type": "Point", "coordinates": [16.20721, 58.99587]}, "properties": {"subdiv": null, "city_name": "Katrineholm", "player_name": "Klas Dahlbeck", "country_iso2": "SE", "current_team": "Carolina Hurricanes", "hockey_reference_link": "https://www.hockey-reference.com/players/d/dahlbkl01.html"}},